tgl,manufacture,version,max_slot,iploopback,hostname,self_slot,tipe_card,tipe_card_1,cap,port_used,port_idle,list_port_used,node,file2_sto_a,file2_types,file2_platform,file2_sto,file2_sto_l,file2_witel,file2_reg,file2_cluster,file2_longitude,file2_latitude
2025-10-09,nokia,7750 SR-12,10,172.30.65.135,ME9-D1-KDTA,1/1,me16-25gb-sfp28+2-100gb-qsfp28,me16-25gb-sfp28+2-100gb-qsfp28,16x10_2x100,18,0,"1,2,3,4,5,6,7,8,9,10,11,12,13,14,15,16,17,18",ME9-D1-KDTA,KDTA,7750 SR-12,ALCATEL-LUCENT,KDT,KEDATON,LAMPUNG,1,,105.2622,-5.37859
2025-10-09,nokia,7750 SR-12,10,172.30.65.135,ME9-D1-KDTA,1/2,me6-100gb-qsfp28,me6-100gb-qsfp28,100,6,0,"1,2,3,4,5,6",ME9-D1-KDTA,KDTA,7750 SR-12,ALCATEL-LUCENT,KDT,KEDATON,LAMPUNG,1,,105.2622,-5.37859
2025-10-09,nokia,7750 SR-12,10,172.30.65.135,ME9-D1-KDTA,10/1,me16-25gb-sfp28+2-100gb-qsfp28,me16-25gb-sfp28+2-100gb-qsfp28,16x10_2x100,18,0,"1,2,3,4,5,6,7,8,9,10,11,12,13,14,15,16,17,18",ME9-D1-KDTA,KDTA,7750 SR-12,ALCATEL-LUCENT,KDT,KEDATON,LAMPUNG,1,,105.2622,-5.37859
2025-10-09,nokia,7750 SR-12,10,172.30.65.135,ME9-D1-KDTA,10/2,me6-100gb-qsfp28,me6-100gb-qsfp28,100,6,0,"1,2,3,4,5,6",ME9-D1-KDTA,KDTA,7750 SR-12,ALCATEL-LUCENT,KDT,KEDATON,LAMPUNG,1,,105.2622,-5.37859
2025-10-09,nokia,7750 SR-12,10,172.30.65.135,ME9-D1-KDTA,3/2,me6-100gb-qsfp28,me6-100gb-qsfp28,100,5,1,"1,2,3,4,5",ME9-D1-KDTA,KDTA,7750 SR-12,ALCATEL-LUCENT,KDT,KEDATON,LAMPUNG,1,,105.2622,-5.37859
2025-10-09,junos,mx960,11,30.30.30.48,R4.NSK.PE-MOBILE.2,0/0,2x 10GE  XFP,2x 10GE  XFP,10,0,2,,,,,,,,,,,,
2025-10-09,junos,mx960,11,30.30.30.48,R4.NSK.PE-MOBILE.2,0/1,2x 10GE  XFP,2x 10GE  XFP,10,0,2,,,,,,,,,,,,
2025-10-09,junos,mx960,11,30.30.30.48,R4.NSK.PE-MOBILE.2,0/2,10x 1GE(LAN) SFP,10x 1GE(LAN) SFP,1,0,10,,,,,,,,,,,,
2025-10-09,junos,mx960,11,30.30.30.48,R4.NSK.PE-MOBILE.2,0/3,10x 1GE(LAN) SFP,10x 1GE(LAN) SFP,1,2,8,"8,9",,,,,,,,,,,
2025-10-09,junos,mx960,11,30.30.30.48,R4.NSK.PE-MOBILE.2,2/0,4x 10GE(LAN) SFP+,4x 10GE(LAN) SFP+,10,4,0,"0,1,2,3",,,,,,,,,,,
2025-10-09,junos,mx960,11,30.30.30.48,R4.NSK.PE-MOBILE.2,2/1,4x 10GE(LAN) SFP+,4x 10GE(LAN) SFP+,10,1,3,0,,,,,,,,,,,
2025-10-09,junos,mx960,11,30.30.30.48,R4.NSK.PE-MOBILE.2,2/2,4x 10GE(LAN) SFP+,4x 10GE(LAN) SFP+,10,0,4,,,,,,,,,,,,
2025-10-09,junos,mx960,11,30.30.30.48,R4.NSK.PE-MOBILE.2,2/3,4x 10GE(LAN) SFP+,4x 10GE(LAN) SFP+,10,1,3,1,,,,,,,,,,,
2025-10-09,cisco,ASR-9010,8,180.250.225.95,R4.SKH.PE-MOBILE.1,0/0/0,A9K-MPA-20X10GE,A9K-MPA-20X10GE,10,4,16,"0,1,18,19",R4.SKH.PE-MOBILE.1,SKH,ASR 9010,CISCO,SKH,SUKOHARJO,SOLO,4,,110.83846,-7.67843
2025-10-09,cisco,ASR-9010,8,180.250.225.95,R4.SKH.PE-MOBILE.1,0/0/1,A9K-MPA-20X1GE,A9K-MPA-20X1GE,1,3,17,"0,1,19",R4.SKH.PE-MOBILE.1,SKH,ASR 9010,CISCO,SKH,SUKOHARJO,SOLO,4,,110.83846,-7.67843
2025-10-09,cisco,ASR-9010,8,180.250.225.95,R4.SKH.PE-MOBILE.1,0/1/,A9K-8X100GE-TR,A9K-8X100GE-TR,100,2,6,"0,1",R4.SKH.PE-MOBILE.1,SKH,ASR 9010,CISCO,SKH,SUKOHARJO,SOLO,4,,110.83846,-7.67843
2025-10-09,cisco,ASR-9010,8,180.250.225.95,R4.SKH.PE-MOBILE.1,0/2/,A9K-8X100GE-SE,A9K-8X100GE-SE,100,6,2,"0,1,2,3,6,7",R4.SKH.PE-MOBILE.1,SKH,ASR 9010,CISCO,SKH,SUKOHARJO,SOLO,4,,110.83846,-7.67843
2025-10-09,cisco,ASR-9010,8,180.250.225.95,R4.SKH.PE-MOBILE.1,0/3/,A9K-8X100GE-TR,A9K-8X100GE-TR,100,8,0,"0,1,2,3,4,5,6,7",R4.SKH.PE-MOBILE.1,SKH,ASR 9010,CISCO,SKH,SUKOHARJO,SOLO,4,,110.83846,-7.67843
2025-10-09,cisco,ASR-9010,8,180.250.225.95,R4.SKH.PE-MOBILE.1,0/4/,A9K-8X100GE-TR,A9K-8X100GE-TR,100,8,0,"0,1,2,3,4,5,6,7",R4.SKH.PE-MOBILE.1,SKH,ASR 9010,CISCO,SKH,SUKOHARJO,SOLO,4,,110.83846,-7.67843
2025-10-09,cisco,ASR-9010,8,180.250.225.95,R4.SKH.PE-MOBILE.1,0/5/,A9K-8X100GE-TR,A9K-8X100GE-TR,100,8,0,"0,1,2,3,4,5,6,7",R4.SKH.PE-MOBILE.1,SKH,ASR 9010,CISCO,SKH,SUKOHARJO,SOLO,4,,110.83846,-7.67843
2025-10-09,cisco,ASR-9010,8,180.250.225.95,R4.SKH.PE-MOBILE.1,0/7/0,A9K-MPA-20X10GE,A9K-MPA-20X10GE,10,4,16,"0,1,2,19",R4.SKH.PE-MOBILE.1,SKH,ASR 9010,CISCO,SKH,SUKOHARJO,SOLO,4,,110.83846,-7.67843
2025-10-09,cisco,ASR-9010,8,180.250.225.95,R4.SKH.PE-MOBILE.1,0/7/1,A9K-MPA-2X40GE,A9K-MPA-2X40GE,10,0,4,,R4.SKH.PE-MOBILE.1,SKH,ASR 9010,CISCO,SKH,SUKOHARJO,SOLO,4,,110.83846,-7.67843
,,,,,09-GGR-01,,,,,,,,,GGR,OTHER,,GGR,GORANGGARENG,MADIUN,5,,111.41835,-7.68271
,,,,,09-MBS-35,,,,,,,,,MBS,C300v2,,MBS,MANGGA BESAR,JAKUT,2,,106.0191,-6.77815
,,,,,09-MPT-02,,,,,,,,,MPT,OTHER,,MSP,MAOSPATI,MADIUN,5,,111.45142,-7.60647
,,,,,09-NWI-03,,,,,,,,,NWI,OTHER,,NWI,NGAWI,MADIUN,5,,111.44605,-7.40363
,,,,,09-PNZ-01,,,,,,,,,PNZ,OTHER,,PNZ,PACITAN,MADIUN,5,,111.09775,-8.19586
,,,,,09-TB-11,,,,,,,,,TB,AN5116-06B,,TBE,TEBET,JAKSEL,2,,106.85113,-6.22365
,,,,,BRAS-D1-BDS,,,,,,,,,BDS,,,DGS,BATAM BUKIT DANGAS STPR,RIKEP,1,,103.939,1.12389
,,,,,BRAS-D1-BDSA,,,,,,,,,BDS,,,DGS,BATAM BUKIT DANGAS STPR,RIKEP,1,,103.939,1.12389
,,,,,BRAS-D1-BKT,,,,,,,,,BKT,SSR 8020,ERICCSON,BKT,BUKITTINGGI,PADANG,1,,100.3694,-0.31111
,,,,,BRAS-D1-BNA,,,,,,,,,BNA,SSR 8020,ERICCSON,BNA,BANDA ACEH CENTRUM,ACEH,1,,95.31973,5.5525
,,,,,BRAS-D1-BNK,,,,,,,,,BNK,SSR 8020,ERICCSON,BNC,MDF BENGKULU CENTRUM,BENGKULU,1,,102.2656,-3.79667
,,,,,BRAS-D1-DRI,,,,,,,,,DRI,,,DRI,DURI,RIDAR,1,,101.19208,1.26754
,,,,,BRAS-D1-LSM,,,,,,,,,LSM,SSR 8020,ERICCSON,LSM,LHOKSEUMAWE,ACEH,1,,97.14528,5.18222
,,,,,BRAS-D1-PDC,,,,,,,,,PDC,SSR 8020,ERICCSON,PDC,PADANG CENTRUM,PADANG,1,,100.3533,-0.95278
,,,,,BRAS-D1-TJK,,,,,,,,,TJK,SSR 8020,ERICCSON,TJK,TANJUNG KARANG,LAMPUNG,1,,105.2563,-5.41084
,,,,,BRAS-D1-TLK,,,,,,,,,TLK,,,TLK,TALANG KELAPA,PALEMBANG,1,,104.72288,-2.93876
,,,,,BRAS-D2-BOO,,,,,,,,,BOO,,,BOO,BOGOR,BOGOR,2,,106.79451,-6.59208
,,,,,BRAS-D2-CKA,,,,,,,,,CKA,,,CKA,CIKUPA,SERANG,2,,106.5223,-6.22811
,,,,,BRAS-D2-KBB,,,,,,,,,KBB,,,KBY,KEBAYORAN,JAKSEL,2,,106.79916,-6.23827
,,,,,BRAS-D3-CBN,,,,,,,,,CBN,,,CBN,CIREBON,CIREBON,3,,108.5612,-6.71619
,,,,,BRAS-D3-CCD,,,,,,,,,CCD,SSR 8010,ERICCSON,CCD,CICADAS,BANDUNG,3,,107.64958,-6.90543
,,,,,BRAS-D3-LBG,,,,,,,,,LBG,SSR 8010,ERICCSON,LBG,LEMBONG,BANDUNG,3,,107.6163,-6.80969
,,,,,BRAS-D3-TSM,,,,,,,,,TSM,SSR 8010,ERICCSON,TSM,TASIKMALAYA,TASIKMALAYA,3,,108.2222,-7.32472
,,,,,BRAS-D4-GLK,,,,,,,,,GLK,SSR 8010,ERICCSON,GLD,SOLO GLADAK,SOLO,4,,110.8109,-7.60986
,,,,,BRAS-D4-KDS,,,,,,,,,KDS,SSR 8010,ERICCSON,KUD,KUDUS,KUDUS,4,,110.88871,-6.80654
,,,,,BRAS-D4-PKL,,,,,,,,,PKL,SSR 8010,ERICCSON,PKL,PEKALONGAN,PEKALONGAN,4,,109.66906,-6.88773
,,,,,BRAS-D4-PWT,,,,,,,,,PWT,SSR 8010,ERICCSON,PWT,PURWOKERTO,PURWOKERTO,4,,109.2375,-7.42436
,,,,,BRAS-D5-BIM,,,,,,,,,BIM,60-X16,HUAWEI,BIM,BIMA,NTB,5,,118.7263,-8.44735
,,,,,BRAS-D5-JR,,,,,,,,,JR,60-X16,HUAWEI,JER,JEMBER,JEMBER,5,,113.6934,-8.17474
,,,,,BRAS-D5-KBL,,,,,,,,,KBL,,,KBL,KEBALEN,SURABAYA UTARA,5,,112.7355,-7.23147
,,,,,BRAS-D5-KBL-DIRECT,,,,,,,,,KBL,,,KBL,KEBALEN,SURABAYA UTARA,5,,112.7355,-7.23147
,,,,,BRAS-D5-KD,,,,,,,,,KD,,,KDI,KEDIRI,KEDIRI,5,,112.01783,-7.84802
,,,,,BRAS-D5-KD0,,,,,,,,,KD,,,KDI,KEDIRI,KEDIRI,5,,112.01715,-7.81488
,,,,,BRAS-D5-KLM,,,,,,,,,KLM,SSR 8010,ERICCSON,KLM,KALIASEM,DENPASAR,5,,115.21865,-8.65481
,,,,,BRAS-D5-ML0,,,,,,,,,ML0,,,MLG,MALANG,MALANG,5,,112.6296,-7.98047
,,,,,BRAS-D5-PS,,,,,,,,,PS,60-X16,HUAWEI,PSN,STO PASURUAN,PASURUAN,5,,112.9009,-7.65136
,,,,,BRAS-D5-PSR,,,,,,,,,PSR,,,PII,PASIRIAN,PASURUAN,5,,113.11461,-8.21384
,,,,,BRAS-D5-SGR,,,,,,,,,SGR,,,SGR,SINGARAJA,SINGARAJA,5,,115.09213,-8.11237
,,,,,BRAS-D6-BAM,,,,,,,,,BAM,,,BAM,BATU AMPAR,BALIKPAPAN,6,,116.855,-1.21792
,,,,,BRAS-D6-BJM,,,,,,,,,BJM,60-X16A,HUAWEI,BJM,BANJARMASIN,BANJARMASIN,6,,114.5919,-3.32508
,,,,,BRAS-D6-BPP,,,,,,,,,BPP,60-X16A,HUAWEI,BRU,BALIKPAPAN BARU,BALIKPAPAN,6,,116.8728,-1.2391
,,,,,BRAS-D6-PTK,,,,,,,,,PTK,60-X16A,HUAWEI,PTK,PONTIANAK CENTRUM,PONTIANAK,6,,109.3335,-0.03325
,,,,,BRAS-D6-SBB,,,,,,,,,SBB,,,SBR,SEBERANG,SAMARINDA,6,,117.1192,-0.53444
,,,,,BRAS-D6-SKK,,,,,,,,,SKK,60-X16A,HUAWEI,SEI,SEI KAKAP,PONTIANAK,6,,109.15994,-0.04804
,,,,,BRAS-D6-SMD,,,,,,,,,SMD,60-X16A,HUAWEI,SMR,SAMARINDA,SAMARINDA,6,,117.1482,-0.49453
,,,,,BRAS-D6-SSB,,,,,,,,,SSB,60-X16A,HUAWEI,SMR,SAMARINDA,SAMARINDA,6,,117.1482,-0.49453
,,,,,BRAS-D6-TRK,,,,,,,,,TRK,,,TRK,TARAKAN,TARAKAN,6,,117.59438,3.30287
,,,,,BRAS-D6-ULN,,,,,,,,,ULN,60-X16A,HUAWEI,ULI,ULIN,BANJARMASIN,6,,114.61059,-3.33031
,,,,,BRAS-D7-BAL,,,,,,,,,BAL,,,BAL,BALAIKOTA,MAKASAR,7,,119.408,-5.13458
,,,,,BRAS-D7-GIN,,,,,,,,,GIN,,,,,,7,,,
,,,,,BRAS-D7-GIN-13,,,,,,,,,GIN,,,,,,7,,,
,,,,,BRAS-D7-JAP,,,,,,,,,JAP,,,JAP,JAYAPURA,JAYAPURA,7,,140.7066,-2.54256
,,,,,BRAS-D7-KLM,,,,,,,,,KLM,,,KLM,KALIASEM,DENPASAR,5,,115.21865,-8.65481
,,,,,BRAS-D7-MDO,,,,,,,,,MDO,SSR 8010,ERICCSON,MDO,MANADO B,MENADO,7,,124.8433,1.48702
,,,,,BRAS-D7-PNK,,,,,,,,,PNK,,,PIK,PANIKI,MENADO,7,,124.8431251,1.4873467
,,,,,BRAS-D7-PNK-SPEEDY,,,,,,,,,PNK,,,PIK,PANIKI,MENADO,7,,124.8431251,1.4873467
,,,,,BRAS-D7-PTR,,,,,,,,,PTR,,,PTRN,PETARANI,MAKASAR,7,,119.43158,-5.16975
,,,,,BRAS-D7-SON,,,,,,,,,SON,,,SON,SORONG,SORONG,7,,130.7148,-0.96971
,,,,,BRAS-D7-TIM,,,,,,,,,TIM,,,TIM,TIMIKA,JAYAPURA,7,,136.88804,-4.54718
,,,,,BRAS-D7-TMK,,,,,,,,,TMK,,,TIM,TIMIKA,JAYAPURA,7,,136.88804,-4.54718
,,,,,BRAS-KBL,,,,,,,,,KBL,,,KBL,KEBALEN,SURABAYA UTARA,5,,112.7355,-7.23147
,,,,,BRAS02-D5-KBL,,,,,,,,,KBL,,,KBL,KEBALEN,SURABAYA UTARA,5,,112.7355,-7.23147
,,,,,BRAS02-D7-AMB,,,,,,,,,AMB,,,ABO,AMBON,AMBON,7,,128.1849,-3.69592
,,,,,BRAS02-D7-MDO,,,,,,,,,MDO,,,MDO,MANADO B,MENADO,7,,124.8433,1.48702
,,,,,BRAS2-D1-BTC,,,,,,,,,BTC,,,BTC,BATAM CENTRE,RIKEP,1,,104.05114,1.11527
,,,,,BRAS2-D1-DRI,,,,,,,,,DRI,60-X16A,HUAWEI,DRI,DURI,RIDAR,1,,101.19208,1.26754
,,,,,BRAS2-D1-MDC,,,,,,,,,MDC,SSR 8010,ERICCSON,MDC,MEDAN CENTRUM,MEDAN,1,,98.70161,3.56844
,,,,,BRAS2-D1-PBR,,,,,,,,,PBR,60-X16A,HUAWEI,PBR,PAKANBARU,RIDAR,1,,101.44796,-0.5244
,,,,,BRAS2-D1-PGC,,,,,,,,,PGC,SSR 8010,ERICCSON,PGC,PALEMBANG CENTRUM,PALEMBANG,1,,104.74832,-2.97792
,,,,,BRAS2-D1-PUB,,,,,,,,,PUB,SSR 8010,ERICCSON,PUB,PULAU BRAYAN,MEDAN,1,,98.68111,3.62763
,,,,,BRAS2-D1-TLK,,,,,,,,,TLK,SSR 8010,ERICCSON,TLK,TALANG KELAPA,PALEMBANG,1,,104.72288,-2.93876
,,,,,BRAS2-D2-BKS,,,,,,,,,BKS,60-X16A,HUAWEI,BEK,BEKASI,BEKASI,2,,107.02527,-6.24991
,,,,,BRAS2-D2-BOO,,,,,,,,,BOO,60-X16A,HUAWEI,BOO,BOGOR,BOGOR,2,,106.79451,-6.59208
,,,,,BRAS2-D2-CKA,,,,,,,,,CKA,60-X16A,HUAWEI,CKA,CIKUPA,SERANG,2,,106.5223,-6.22811
,,,,,BRAS2-D2-KBB,,,,,,,,,KBB,60-X16A,HUAWEI,KBY,KEBAYORAN,JAKSEL,2,,106.79916,-6.23827
,,,,,BRAS2-D2-SLP,,,,,,,,,SLP,60-X16A,HUAWEI,SLP,SLIPI,JAKBAR,2,,106.7937,-6.17474
,,,,,BRAS2-D3-CBN,,,,,,,,,CBN,SSR 8010,ERICCSON,CBN,CIREBON,CIREBON,3,,108.5612,-6.71619
,,,,,BRAS2-D3-LBG,,,,,,,,,LBG,,,LBG,LEMBONG,BANDUNG,3,,107.6163,-6.80969
,,,,,BRAS2-D4-GB,,,,,,,,,GB,,,GBL,GOMBEL,SEMARANG,4,,110.42652,-7.04495
,,,,,BRAS2-D4-GBL,,,,,,,,,GBL,SSR 8010,ERICCSON,GBL,GOMBEL,SEMARANG,4,,110.42654,-7.04505
,,,,,BRAS2-D4-KBU,,,,,,,,,KBU,SSR 8010,ERICCSON,KBU,YOKYAKARTA KOTABARU,YOGYAKARTA,4,,110.37509,-7.78603
,,,,,BRAS2-D5-KBL,,,,,,,,,KBL,60-X16A,HUAWEI,KBL,KEBALEN,SURABAYA UTARA,5,,112.7355,-7.23147
,,,,,BRAS2-D5-KD0,,,,,,,,,KD,60-X16A,HUAWEI,KDI,KEDIRI,KEDIRI,5,,112.01715,-7.81488
,,,,,BRAS2-D5-ML,,,,,,,,,ML,,,MLG,MALANG,MALANG,5,,112.6296,-7.98047
,,,,,BRAS2-D5-ML0,,,,,,,,,ML0,60-X16A,HUAWEI,MLG,MALANG,MALANG,5,,112.6296,-7.98047
,,,,,BRAS2-D5-MTR,,,,,,,,,MTR,60-X16,HUAWEI,MTR,MATARAM,NTB,5,,116.0977,-8.58303
,,,,,BRAS2-D5-RKT,,,,,,,,,RKT,60-X16A,HUAWEI,RKT,RUNGKUT,SURABAYA SELATAN,5,,112.7454,-7.32919
,,,,,BRAS2-D7-AMB,,,,,,,,,AMB,,,ABO,AMBON,AMBON,7,,128.1849,-3.69592
,,,,,BRAS2-D7-BAL,,,,,,,,,BAL,SSR 8010,ERICCSON,BAL,BALAIKOTA,MAKASAR,7,,119.408,-5.13458
,,,,,BRAS2-D7-JAP,,,,,,,,,JAP,,,JAP,JAYAPURA,JAYAPURA,7,,140.7066,-2.54256
,,,,,BRAS2-D7-KLM,,,,,,,,,KLM,,,KLM,KALIASEM,DENPASAR,5,,115.21865,-8.65481
,,,,,BRAS2-D7-MDO,,,,,,,,,MDO,,,MDO,MANADO B,MENADO,7,,124.8433,1.48702
,,,,,BRAS2-D7-MTR,,,,,,,,,MTR,,,,,,7,,,
,,,,,BRAS2-D7-PIK,,,,,,,,,PIK,,,PIK,PANIKI,MENADO,7,,124.8431251,1.4873467
,,,,,BRAS2-D7-PNK,,,,,,,,,PNK,SSR 8010,ERICCSON,PNK,PANAKUKANG,MAKASAR,7,,119.43942,-5.14042
,,,,,BRAS2-D7-PTR,,,,,,,,,PTR,SSR 8010,ERICCSON,PTRN,PETARANI,MAKASAR,7,,119.43158,-5.16975
,,,,,BRAS2-D7-TMK,,,,,,,,,TMK,,,TIM,TIMIKA,JAYAPURA,7,,136.88804,-4.54718
,,,,,BRAS2-D7-TNT,,,,,,,,,TNT,,,TNT,TERNATE,MENADO,7,,127.3784,0.78731
,,,,,BRAS3-D2-JT,,,,,,,,,JT,60-X16A,HUAWEI,JTN,JATINEGARA,JAKTIM,2,,106.87385,-6.22081
,,,,,BRAS3-D5-AMB,,,,,,,,,AMB,,,,,,5,,112.7786923,-7.2849895
,,,,,BRAS3-D5-KPN,,,,,,,,,KPN,,,KEP,KEPANJEN,MALANG,5,,112.57142,-8.13265
,,,,,BRAS3-D5-KPN#5,,,,,,,,,KPN,,,KEP,KEPANJEN,MALANG,5,,112.57142,-8.13265
,,,,,BRAS3-D5-MTR,,,,,,,,,MTR,,,MTR,MATARAM,NTB,5,,116.09763,-8.58234
,,,,,BRAS3-D6-BAM,,,,,,,,,BAM,60-X16A,HUAWEI,BAM,BATU AMPAR,BALIKPAPAN,6,,116.855,-1.21792
,,,,,BRAS3-D6-BPP,,,,,,,,,BPP,,,BRU,BALIKPAPAN BARU,BALIKPAPAN,6,,116.8728,-1.2391
,,,,,BRAS3-D6-TRK,,,,,,,,,TRK,,,TRK,TARAKAN,TARAKAN,6,,117.59438,3.30287
,,,,,BRAS3-D7-AMB,,,,,,,,,AMB,,,ABO,AMBON,AMBON,7,,128.1849,-3.69592
,,,,,BRAS3-D7-KPN,,,,,,,,,KPN,,,KPN,KUPANG,NTT,5,,123.61106,-10.17139
,,,,,BRAS3-D7-KUP,,,,,,,,,KUP,,,,,,7,,,
,,,,,BRAS4-D2-CKA,,,,,,,,,CKA,,,CKA,CIKUPA,SERANG,2,,106.5223,-6.22811
,,,,,BRAS4-D5-KBL,,,,,,,,,KBL,,,KBL,KEBALEN,SURABAYA UTARA,5,,112.7355,-7.23147
,,,,,BRAS4-D6-BJM,,,,,,,,,BJM,,,BJM,BANJARMASIN,BANJARMASIN,6,,114.5919,-3.32508
,,,,,BRAS4-D6-ULN,,,,,,,,,ULN,,,ULI,ULIN,BANJARMASIN,6,,114.61059,-3.33031
,,,,,CDN-CONVERSANT TELIN,,,,,,,,,,,,,,,,,,
,,,,,CDN_AKAMAI,,,,,,,,,,,,,,,,,,
,,,,,CDN_BYTEDANCE,,,,,,,,,,,,,,,,,,
,,,,,CDN_CONVERSANT,,,,,,,,,,,,,,,,,,
,,,,,CDN_FACEBOOK,,,,,,,,,,,,,,,,,,
,,,,,CDN_GGC,,,,,,,,,,,,,,,,,,
,,,,,CDN_Google,,,,,,,,,,,,,,,,,,
,,,,,CDN_HUAWEI,,,,,,,,,,,,,,,,,,
,,,,,CDN_HYBRID,,,,,,,,,,,,,,,,,,
,,,,,CDN_IPTV,,,,,,,,,,,,,,,,,,
,,,,,CDN_NEUCENTRIX,,,,,,,,,,,,,,,,,,
,,,,,CDN_OTT,,,,,,,,,,,,,,,,,,
,,,,,CDN_VDMS,,,,,,,,,,,,,,,,,,
,,,,,CDN_YAHOO,,,,,,,,,,,,,,,,,,
,,,,,CES-D1-ABAA,,,,,,,,,ABAA,7705 SAR-8,ALCATEL-LUCENT,ABA,AMBARITA,SUMUT,1,,98.84361,2.6775
,,,,,CES-D1-ABGA,,,,,,,,,ABGA,7705 SAR-8,ALCATEL-LUCENT,ABG,AIR BANGIS,PADANG,1,,100.0011,-0.20611
,,,,,CES-D1-ALHA,,,,,,,,,ALHA,7705 SAR-8,ALCATEL-LUCENT,ALH,ALAHAN PANJANG,PADANG,1,,100.7881,-1.08194
,,,,,CES-D1-AMKA,,,,,,,,,AMKA,7705 SAR-8,ALCATEL-LUCENT,AMK,AIR MOLEK,RIDAR,1,,102.29389,-0.36064
,,,,,CES-D1-ANPA,,,,,,,,,ANPA,7705 SAR-8,ALCATEL-LUCENT,ANP,AEK KANOPAN,SUMUT,1,,99.65528,2.57194
,,,,,CES-D1-ANRA,,,,,,,,,ANRA,7705 SAR-8,HUAWEI,ANR,AEK NABARA,SUMUT,1,,99.95174,2.06549
,,,,,CES-D1-ARKA,,,,,,,,,ARKA,7705 SAR-8,HUAWEI,ARK,ARENGKA,RIDAR,1,,101.41907,0.46632
,,,,,CES-D1-AVIA,,,,,,,,,AVIA,7705 SAR-8,ALCATEL-LUCENT,AVI,AVIARI,RIKEP,1,,104.63737,-4.1111
,,,,,CES-D1-BAGA,,,,,,,,,BAGA,7705 SAR-8,HUAWEI,BAG,BAGAN SIAPI-API,RIDAR,1,,100.80753,2.15895
,,,,,CES-D1-BAKA,,,,,,,,,BAKA,7705 SAR-F,ALCATEL-LUCENT,BAK,BAKONGAN,ACEH,1,,97.48222,2.92639
,,,,,CES-D1-BASA,,,,,,,,,BASA,7705 SAR-8,ALCATEL-LUCENT,BAS,BENGKALIS,RIDAR,1,,102.1107,1.46622
,,,,,CES-D1-BBUA,,,,,,,,,BBUA,7705 SAR-8,ALCATEL-LUCENT,BDU,BLAMBANGAN UMPU,LAMPUNG,1,,104.5182,-4.50438
,,,,,CES-D1-BCMA,,,,,,,,,BCMA,7705 SAR-8,ALCATEL-LUCENT,TIS,TAIS,BENGKULU,1,,102.5753,-3.07833
,,,,,CES-D1-BDAA,,,,,,,,,BDAA,7705 SAR-8,ALCATEL-LUCENT,BDA,BANDAR JAYA,LAMPUNG,1,,105.2091,-4.93568
,,,,,CES-D1-BDBA,,,,,,,,,BDBA,7705 SAR-8,ALCATEL-LUCENT,BDB,BANDAR BARU,SUMUT,1,,98.54072,3.26445
,,,,,CES-D1-BDSA,,,,,,,,,BDSA,7705 SAR-8,ALCATEL-LUCENT,DGS,BATAM BUKIT DANGAS STPR,RIKEP,1,,103.939,1.12389
,,,,,CES-D1-BDTA,,,,,,,,,BDTA,7705 SAR-8,ALCATEL-LUCENT,BDT,BANDAR BUAT,PADANG,1,,100.4217,-0.95333
,,,,,CES-D1-BGOA,,,,,,,,,BGOA,7705 SAR-F,ALCATEL-LUCENT,BGO,BATANG TORU,SUMUT,1,,99.04136,1.48766
,,,,,CES-D1-BGUA,,,,,,,,,BGUA,7705 SAR-8,ALCATEL-LUCENT,BGU,BAGAN BATU,RIDAR,1,,100.40757,1.69844
,,,,,CES-D1-BIRA,,,,,,,,,BIRA,7705 SAR-8,ALCATEL-LUCENT,BIR,BIREUN,ACEH,1,,96.70417,5.20139
,,,,,CES-D1-BJIA,,,,,,,,,BJIA,7705 SAR-8,ALCATEL-LUCENT,BJI,BINJAI,MEDAN,1,,98.4956,3.61021
,,,,,CES-D1-BKMA,,,,,,,,,BKMA,7705 SAR-8,ALCATEL-LUCENT,BKM,BUKIT KEMUNING,LAMPUNG,1,,104.5606,-4.87306
,,,,,CES-D1-BKNA,,,,,,,,,BKNA,7705 SAR-8,HUAWEI,BKN,BANGKINAN,RIDAR,1,,101.02223,0.33739
,,,,,CES-D1-BKOA,,,,,,,,,BKOA,7705 SAR-8,ALCATEL-LUCENT,BKO,BANGKO,JAMBI,1,,102.2752,-2.06454
,,,,,CES-D1-BKPA,,,,,,,,,BKPA,7705 SAR-8,ALCATEL-LUCENT,BKP,BATANG KAPAS,PADANG,1,,100.59997,-1.44275
,,,,,CES-D1-BKRA,,,,,,,,,BKRA,7705 SAR-8,ALCATEL-LUCENT,BKR,BUKIT RAYA,RIDAR,1,,101.45286,0.43873
,,,,,CES-D1-BKTA,,,,,,,,,BKTA,7705 SAR-8,ALCATEL-LUCENT,BKT,BUKITTINGGI,PADANG,1,,100.3694,-0.31111
,,,,,CES-D1-BLGA,,,,,,,,,BLGA,7705 SAR-8,ALCATEL-LUCENT,BLG,BALIGE,SUMUT,1,,99.06938,2.33181
,,,,,CES-D1-BLPA,,,,,,,,,BLPA,7705 SAR-8,ALCATEL-LUCENT,BLP,BELAKANG PADANG,RIKEP,1,,103.89025,1.15454
,,,,,CES-D1-BLRA,,,,,,,,,BLRA,7705 SAR-8,ALCATEL-LUCENT,,BALAI RAJA,RIDAR,1,,100.97382,1.302
,,,,,CES-D1-BLSA,,,,,,,,,BLSA,7705 SAR-8,ALCATEL-LUCENT,BLS,BALAI SELASA,PADANG,1,,100.8386,-1.79833
,,,,,CES-D1-BLTA,,,,,,,,,BLTA,7705 SAR-8,ALCATEL-LUCENT,BLT,BELITANG,PALEMBANG,1,,104.64034,-4.10926
,,,,,CES-D1-BLUA,,,,,,,,,BLUA,7705 SAR-8,ALCATEL-LUCENT,BYU,BELINYU,PANGKAL PINANG,1,,105.7685,-1.63606
,,,,,CES-D1-BNA-SBB,,,,,,,,,BNA,7705 SAR-8 v2,ALCATEL-LUCENT,BNA,BANDA ACEH CENTRUM,ACEH,1,,95.31973,5.5525
,,,,,CES-D1-BNAC,,,,,,,,,BNAC,7705 SAR-8,ALCATEL-LUCENT,BNA,BANDA ACEH CENTRUM,ACEH,1,,95.31973,5.5525
,,,,,CES-D1-BNKC,,,,,,,,,BNKC,7705 SAR-8,ALCATEL-LUCENT,BNC,MDF BENGKULU CENTRUM,BENGKULU,1,,102.2656,-3.79667
,,,,,CES-D1-BNNA,,,,,,,,,BNNA,7705 SAR-8,ALCATEL-LUCENT,BNN,BEUREUNUN,ACEH,1,,95.98714,5.27158
,,,,,CES-D1-BPOA,,,,,,,,,BPOA,7705 SAR-8,ALCATEL-LUCENT,TBK,TANJUNG BALAI KARIMUN,RIKEP,1,,103.4389,0.99039
,,,,,CES-D1-BSBA,,,,,,,,,BSBA,7705 SAR-8,HUAWEI,,,,1,,104.77879,-3.01611
,,,,,CES-D1-BSOA,,,,,,,,,BSOA,7705 SAR-8,ALCATEL-LUCENT,BSO,BASO A,PADANG,1,,100.4669,-0.28444
,,,,,CES-D1-BSTA,,,,,,,,,BSTA,7705 SAR-8,ALCATEL-LUCENT,BST,BRASTAGI,SUMUT,1,,98.50553,3.19899
,,,,,CES-D1-BTBA,,,,,,,,,BTBA,7705 SAR-8,ALCATEL-LUCENT,,,,1,,103.57894,-1.59308
,,,,,CES-D1-BTC,,,,,,,,,BTC,7705 SAR-8 v2,HUAWEI,BTC,BATAM CENTRE,RIKEP,1,,104.05114,1.11527
,,,,,CES-D1-BTM-BBT,,,,,,,,,BTM,7705 SAR-8,ALCATEL-LUCENT,BTC,BATAM CENTRE,RIKEP,1,,104.05114,1.11527
,,,,,CES-D1-BTM-EPC,,,,,,,,,BTM,7705 SAR-8,ALCATEL-LUCENT,BTC,BATAM CENTRE,RIKEP,1,,104.05114,1.11527
,,,,,CES-D1-BTM-GTR,,,,,,,,,BTM,7705 SAR-8,ALCATEL-LUCENT,BTC,BATAM CENTRE,RIKEP,1,,104.05114,1.11527
,,,,,CES-D1-BTM-HND,,,,,,,,,BTM,7705 SAR-8,ALCATEL-LUCENT,BTC,BATAM CENTRE,RIKEP,1,,104.05114,1.11527
,,,,,CES-D1-BTM-SBB,,,,,,,,,BTM,7705 SAR-8,ALCATEL-LUCENT,BTC,BATAM CENTRE,RIKEP,1,,104.05114,1.11527
,,,,,CES-D1-BTM-SKY,,,,,,,,,BTM,7705 SAR-8,ALCATEL-LUCENT,BTC,BATAM CENTRE,RIKEP,1,,104.05114,1.11527
,,,,,CES-D1-BTM-SPR,,,,,,,,,BTM,7705 SAR-8,JUNIPER,BTC,BATAM CENTRE,RIKEP,1,,104.05114,1.11527
,,,,,CES-D1-BTM-TSEL,,,,,,,,,BTM,7705 SAR-8,ALCATEL-LUCENT,BTC,BATAM CENTRE,RIKEP,1,,104.05114,1.11527
,,,,,CES-D1-BTM-TUS,,,,,,,,,BTM,7705 SAR-8,ALCATEL-LUCENT,BTC,BATAM CENTRE,RIKEP,1,,104.05114,1.11527
,,,,,CES-D1-BUMA,,,,,,,,,BUMA,7705 SAR-8,ALCATEL-LUCENT,BUM,BATU AMPAR,RIKEP,1,,104.00867,1.1714
,,,,,CES-D1-BUSA,,,,,,,,,BUSA,7705 SAR-8,ALCATEL-LUCENT,BJE,BARUSJAHE,SUMUT,1,,98.45367,3.10242
,,,,,CES-D1-BYUA,,,,,,,,,BYUA,7705 SAR-8,ALCATEL-LUCENT,BYU,BELINYU,PANGKAL PINANG,1,,105.7685,-1.63606
,,,,,CES-D1-CAGA,,,,,,,,,CAGA,7705 SAR-8,ALCATEL-LUCENT,CAG,MDF CALANG,ACEH,1,,95.59055,4.63056
,,,,,CES-D1-CRPA,,,,,,,,,CRPA,7705 SAR-8,ALCATEL-LUCENT,CRP,MDF CURUP,BENGKULU,1,,102.5228,-3.46861
,,,,,CES-D1-CTDA,,,,,,,,,CTDA,7705 SAR-8,ALCATEL-LUCENT,CTD,CINTA DAMAI,MEDAN,1,,98.62658,3.59223
,,,,,CES-D1-DARA,,,,,,,,,DARA,7705 SAR-F,ALCATEL-LUCENT,DAR,MDF DARUSSALAM,ACEH,1,,95.3365,5.56958
,,,,,CES-D1-DARA-SMARTFREN,,,,,,,,,DARA,7705 SAR-F,ALCATEL-LUCENT,DAR,MDF DARUSSALAM,ACEH,1,,95.3365,5.56958
,,,,,CES-D1-DLSA,,,,,,,,,DLSA,7705 SAR-8,ALCATEL-LUCENT,DLS,DOLOK SANGGUL,SUMUT,1,,98.74722,2.25003
,,,,,CES-D1-DLTA,,,,,,,,,DLTA,7705 SAR-8,ALCATEL-LUCENT,DLT,DELITUA,MEDAN,1,,98.67917,3.50278
,,,,,CES-D1-DRIA,,,,,,,,,DRIA,7705 SAR-8,ALCATEL-LUCENT,DRI,DURI,RIDAR,1,,101.19208,1.26754
,,,,,CES-D1-DSGA,,,,,,,,,DSGA,7705 SAR-8,ALCATEL-LUCENT,,DOLOK SIMARJARUNJUNG,SUMUT,1,,99.0727,3.11304
,,,,,CES-D1-DUMA,,,,,,,,,DUMA,7705 SAR-8,ALCATEL-LUCENT,DUM,DUMAI,RIDAR,1,,101.44574,1.67862
,,,,,CES-D1-GEUA,,,,,,,,,GEUA,7705 SAR-8,ALCATEL-LUCENT,GEU,GEUDONG,ACEH,1,,97.2,5.11889
,,,,,CES-D1-GMNA,,,,,,,,,GMNA,7705 SAR-8,ALCATEL-LUCENT,GMN,GUNUNG MEDAN,PADANG,1,,101.55039,-1.09742
,,,,,CES-D1-GMPA,,,,,,,,,GMPA,7705 SAR-8,ALCATEL-LUCENT,MPA,MARTAPURA,PALEMBANG,1,,104.3475165,-4.3156604
,,,,,CES-D1-GNTA,,,,,,,,,GNTA,7705 SAR-8,ALCATEL-LUCENT,GNT,GUNUNG TUA,SUMUT,1,,99.62473,1.50833
,,,,,CES-D1-GST-TSEL,,,,,,,,,GST,7705 SAR-8,ALCATEL-LUCENT,GST,GUNUNG SITOLI,SUMUT,1,,97.61541,1.28907
,,,,,CES-D1-GSTA,,,,,,,,,GSTA,7705 SAR-8,ALCATEL-LUCENT,GST,GUNUNG SITOLI,SUMUT,1,,97.61541,1.28907
,,,,,CES-D1-HRUA,,,,,,,,,HRUA,,,HRU,HARAU,PADANG,1,,100.7175,-0.27389
,,,,,CES-D1-IDAA,,,,,,,,,IDAA,7705 SAR-8,ALCATEL-LUCENT,IDA,INDRAPURA,SUMUT,1,,99.40621,3.25987
,,,,,CES-D1-IDIA,,,,,,,,,IDIA,7705 SAR-8 v2,ALCATEL-LUCENT,IDI,IDI,ACEH,1,,97.77278,4.94917
,,,,,CES-D1-JB-TSEL,,,,,,,,,JB,,,JBS,JEBUS,PANGKAL PINANG,1,,105.5087,-1.66619
,,,,,CES-D1-JBCA,,,,,,,,,JBCA,7705 SAR-8,ALCATEL-LUCENT,JMB,JAMBI,JAMBI,1,,103.6176,-1.59317
,,,,,CES-D1-JBI-ISAT,,,,,,,,,JBI,,,,,,1,,98.67254,3.59294
,,,,,CES-D1-JBI-XL,,,,,,,,,JBI,,,,,,1,,98.67254,3.59294
,,,,,CES-D1-JBSA,,,,,,,,,JBSA,7705 SAR-8,ALCATEL-LUCENT,JBS,JEBUS,PANGKAL PINANG,1,,105.5087,-1.66619
,,,,,CES-D1-JRMA,,,,,,,,,JRMA,7705 SAR-8,ALCATEL-LUCENT,JRM,JEURAM,ACEH,1,,102.3386,-1.47083
,,,,,CES-D1-KBJA,,,,,,,,,KBJA,7705 SAR-8,ALCATEL-LUCENT,KBJ,KABANJAHE,SUMUT,1,,98.49674,3.10229
,,,,,CES-D1-KBLA,,,,,,,,,KBLA,7705 SAR-8,ALCATEL-LUCENT,KAI,KABIL,RIKEP,1,,104.12246,1.15596
,,,,,CES-D1-KGGA,,,,,,,,,KGGA,7705 SAR-8,ALCATEL-LUCENT,KGG,KOTA AGUNG,PADANG,1,,104.6347,-5.50333
,,,,,CES-D1-KGHA,,,,,,,,,KGHA,7705 SAR-8,ALCATEL-LUCENT,KGH,MDF KRUENG GEUKEUH,ACEH,1,,97.02639,5.23611
,,,,,CES-D1-KIJA,,,,,,,,,KIJA,7705 SAR-8,HUAWEI,KIJ,KIJANG,RIKEP,1,,104.60042,0.85394
,,,,,CES-D1-KIMA,,,,,,,,,KIMA,7705 SAR-8,ALCATEL-LUCENT,KIB,KAWASAN INDUSTRI MABAR,MEDAN,1,,98.66532,3.66654
,,,,,CES-D1-KISA,,,,,,,,,KISA,7705 SAR-8,ALCATEL-LUCENT,KIS,KISARAN,SUMUT,1,,99.62278,2.98646
,,,,,CES-D1-KJIA,,,,,,,,,KJIA,7705 SAR-8,ALCATEL-LUCENT,KJI,KURANJI,PADANG,1,,100.1317,-0.62528
,,,,,CES-D1-KLEA,,,,,,,,,KLEA,7705 SAR-8,HUAWEI,KLE,KUALA ENOK,RIDAR,1,,103.4017,-0.51361
,,,,,CES-D1-KLPA,,,,,,,,,KLPA,7705 SAR-8,ALCATEL-LUCENT,TLK,TALANG KELAPA,PALEMBANG,1,,104.72288,-2.93876
,,,,,CES-D1-KM10,,,,,,,,,KM1,7705 SAR-8,ALCATEL-LUCENT,,,,1,,98.67254,3.59294
,,,,,CES-D1-KNLA,,,,,,,,,KNLA,7705 SAR-8,ALCATEL-LUCENT,KNL,KINALI,PADANG,1,,100.04793,-0.07935
,,,,,CES-D1-KONA,,,,,,,,,KONA,7705 SAR-8,ALCATEL-LUCENT,KON,KOTANOPAN,SUMUT,1,,99.71444,0.66833
,,,,,CES-D1-KOUA,,,,,,,,,KOUA,7705 SAR-8,ALCATEL-LUCENT,KOA,KOTA BARU,JAMBI,1,,103.6064,-1.63136
,,,,,CES-D1-KPHA,,,,,,,,,KPHA,7705 SAR-8,ALCATEL-LUCENT,KPH,MDF KEPAHIANG,BENGKULU,1,,102.5783,-3.63528
,,,,,CES-D1-KPIA,,,,,,,,,KPIA,7705 SAR-8,ALCATEL-LUCENT,KPI,KOTA PINANG,SUMUT,1,,100.0925,1.89139
,,,,,CES-D1-KRUA,,,,,,,,,KRUA,7705 SAR-8,ALCATEL-LUCENT,KRU,KRUI,LAMPUNG,1,,104.6439,-5.50333
,,,,,CES-D1-KSGA,,,,,,,,,KSGA,7705 SAR-8,ALCATEL-LUCENT,KSG,KUALA SIMPANG,ACEH,1,,98.06,4.28722
,,,,,CES-D1-KTJA,,,,,,,,,KTJA,7705 SAR-8,ALCATEL-LUCENT,KTJ,KUALA TANJUNG,SUMUT,1,,99.44194,3.41194
,,,,,CES-D1-KTLA,,,,,,,,,KTLA,7705 SAR-8,ALCATEL-LUCENT,KTL,KUALA TUNGKAL,JAMBI,1,,103.4659,-0.81298
,,,,,CES-D1-KTNA,,,,,,,,,KTNA,7705 SAR-8,ALCATEL-LUCENT,KTN,KUTACANE,ACEH,1,,97.81667,3.5
,,,,,CES-D1-KULA,,,,,,,,,KULA,,ALCATEL-LUCENT,KUL,KUALA,MEDAN,1,,98.39639,3.52889
,,,,,CES-D1-KYTA,,,,,,,,,KYTA,7705 SAR-8,ALCATEL-LUCENT,KYT,KAYU TANAM,PADANG,1,,100.3172,-0.54361
,,,,,CES-D1-LBGA,,,,,,,,,LBGA,7705 SAR-8,ALCATEL-LUCENT,LBA,LUBUK ALUNG,PADANG,1,,100.2848826,-0.681152
,,,,,CES-D1-LBJA,,,,,,,,,LBJA,7705 SAR-8,JUNIPER,LBJ,LUBUK BAJA,RIKEP,1,,104.0186,1.13517
,,,,,CES-D1-LBPA,,,,,,,,,LBPA,7705 SAR-8,ALCATEL-LUCENT,LBP,LUBUK PAKAM,MEDAN,1,,98.87639,3.56167
,,,,,CES-D1-LBR-BSIM,,,,,,,,,LBR,7705 SAR-8,ALCATEL-LUCENT,LBR,LAMBARO,ACEH,1,,95.35584,5.51139
,,,,,CES-D1-LBRA,,,,,,,,,LBRA,7705 SAR-8,ALCATEL-LUCENT,LBR,LAMBARO,ACEH,1,,95.35584,5.51139
,,,,,CES-D1-LBSA,,,,,,,,,LBSA,7705 SAR-F,ALCATEL-LUCENT,LBS,LUBUK SIKAPING,PADANG,1,,100.1744,0.28667
,,,,,CES-D1-LBYA,,,,,,,,,LBYA,7705 SAR-8,ALCATEL-LUCENT,LBY,LUBUK BUAYA,PADANG,1,,100.3172,-0.81167
,,,,,CES-D1-LGSA,,,,,,,,,LGSA,7705 SAR-8,ALCATEL-LUCENT,LGS,LANGSA,ACEH,1,,97.96639,4.47306
,,,,,CES-D1-LINA,,,,,,,,,LINA,7705 SAR-8,ALCATEL-LUCENT,LIN,LINTAU,PADANG,1,,100.7525,-0.3075
,,,,,CES-D1-LKIA,,,,,,,,,LKIA,,ALCATEL-LUCENT,,LIPAT KAIN,RIDAR,1,,100.76151,0.27273
,,,,,CES-D1-LLGA,,,,,,,,,LLGA,7705 SAR-8,ALCATEL-LUCENT,LLG,LUBUKLINGGAU,PALEMBANG,1,,102.86192,-3.29568
,,,,,CES-D1-LMIA,,,,,,,,,LMIA,7705 SAR-8,ALCATEL-LUCENT,,LAMIE,ACEH,1,,96.11453,4.14385
,,,,,CES-D1-LNOA,,,,,,,,,LNOA,7705 SAR-F,ALCATEL-LUCENT,LNO,MDF LAMNO,ACEH,1,,95.3634481,5.0897212
,,,,,CES-D1-LSKA,,,,,,,,,LSKA,7705 SAR-8,ALCATEL-LUCENT,LSK,LHOKSUKON,ACEH,1,,97.32083,5.04667
,,,,,CES-D1-LSMA,,,,,,,,,LSMA,7705 SAR-8,ALCATEL-LUCENT,LSM,LHOKSEUMAWE,ACEH,1,,97.14528,5.18222
,,,,,CES-D1-LTM-HCPT,,,,,,,,,LTM,7705 SAR-8,ALCATEL-LUCENT,LTM,LAMTEUMEN,ACEH,1,,95.29335,5.5281
,,,,,CES-D1-LTMA,,,,,,,,,LTMA,7705 SAR-8,ALCATEL-LUCENT,LTM,LAMTEUMEN,ACEH,1,,95.29335,5.5281
,,,,,CES-D1-LUGA,,,,,,,,,LUGA,7705 SAR-8,ALCATEL-LUCENT,LUG,LUBUK GADANG,PADANG,1,,101.2431,-1.55167
,,,,,CES-D1-MANA,,,,,,,,,MANA,,ALCATEL-LUCENT,MUA,MDF MUARA AMAN,BENGKULU,1,,102.195,-3.10444
,,,,,CES-D1-MBOA,,,,,,,,,MBOA,7705 SAR-8,ALCATEL-LUCENT,MBO,MEULABOH,ACEH,1,,96.12666,4.13611
,,,,,CES-D1-MDC,,,,,,,,,MDC,7705 SAR-8,ALCATEL-LUCENT,MDC,MEDAN CENTRUM,MEDAN,1,,98.70161,3.56844
,,,,,CES-D1-MDN-HCPT,,,,,,,,,MDN,7705 SAR-8,ALCATEL-LUCENT,MDC,MEDAN CENTRUM,MEDAN,1,,98.70161,3.56844
,,,,,CES-D1-MDN-KNIA,,,,,,,,,MDN,7705 SAR-8,ALCATEL-LUCENT,MDC,MEDAN CENTRUM,MEDAN,1,,98.70161,3.56844
,,,,,CES-D1-MDN-SMT,,,,,,,,,MDN,7705 SAR-8,ALCATEL-LUCENT,MDC,MEDAN CENTRUM,MEDAN,1,,98.70161,3.56844
,,,,,CES-D1-MDN-TSEL,,,,,,,,,MDN,7705 SAR-8,ALCATEL-LUCENT,MDC,MEDAN CENTRUM,MEDAN,1,,98.70161,3.56844
,,,,,CES-D1-MDN-USU,,,,,,,,,MDN,7705 SAR-8,ALCATEL-LUCENT,MDC,MEDAN CENTRUM,MEDAN,1,,98.70161,3.56844
,,,,,CES-D1-MEMA,,,,,,,,,MEMA,7705 SAR-8,ALCATEL-LUCENT,MEM,MUARA ENIM,PALEMBANG,1,,103.76781,-3.65588
,,,,,CES-D1-MGLA,,,,,,,,,MGLA,7705 SAR-8,ALCATEL-LUCENT,BIR,BIREUN,ACEH,1,,96.70417,5.20139
,,,,,CES-D1-MLHA,,,,,,,,,MLHA,7705 SAR-8,ALCATEL-LUCENT,MLH,MUARA LABUH,PADANG,1,,101.0633,-1.49083
,,,,,CES-D1-MNAA,,,,,,,,,MNAA,7705 SAR-8,ALCATEL-LUCENT,MNA,MANNA,BENGKULU,1,,102.9236,-3.38528
,,,,,CES-D1-NGBA,,,,,,,,,NGBA,7705 SAR-8,ALCATEL-LUCENT,NGB,NEGERI BARU,SUMUT,1,,100.0884,2.31326
,,,,,CES-D1-NGSA,,,,,,,,,NGSA,7705 SAR-8,ALCATEL-LUCENT,NGS,NONGSA,RIKEP,1,,104.1219,1.15613
,,,,,CES-D1-NRSA,,,,,,,,,NRSA,7705 SAR-8,ALCATEL-LUCENT,NRS,NARAS,PADANG,1,,100.0997,-0.56194
,,,,,CES-D1-PBDA,,,,,,,,,PBDA,7705 SAR-8,ALCATEL-LUCENT,PBD,PANGKALAN BRANDAN,MEDAN,1,,98.28778,4.01833
,,,,,CES-D1-PBMA,,,,,,,,,PBMA,,ALCATEL-LUCENT,PBM,PRABUMULIH,PALEMBANG,1,,104.23702,-3.43222
,,,,,CES-D1-PBNA,,,,,,,,,PBNA,7705 SAR-8,ALCATEL-LUCENT,PKB,PANKALAN BULIAN,JAMBI,1,,103.7912,-1.20385
,,,,,CES-D1-PBRC,,,,,,,,,PBRC,7705 SAR-8,ALCATEL-LUCENT,PBR,PAKANBARU,RIDAR,1,,101.44796,-0.5244
,,,,,CES-D1-PDBA,,,,,,,,,PDBA,7705 SAR-8,ALCATEL-LUCENT,PDB,PADANG BULAN,MEDAN,1,,98.63285,3.55566
,,,,,CES-D1-PDC,,,,,,,,,PDC,7705 SAR-8,ALCATEL-LUCENT,PDC,PADANG CENTRUM,PADANG,1,,100.3533,-0.95278
,,,,,CES-D1-PDJA,,,,,,,,,PDJA,7705 SAR-8,ALCATEL-LUCENT,PDJ,PADANG JAPANG,PADANG,1,,100.5353,-0.10806
,,,,,CES-D1-PDNA,,,,,,,,,PDNA,7705 SAR-8,ALCATEL-LUCENT,PDN,PERDAGANGAN,SUMUT,1,,99.3316,3.1634
,,,,,CES-D1-PDSA,,,,,,,,,PDSA,7705 SAR-F,ALCATEL-LUCENT,PDS,PADANG SIBUSUK,PADANG,1,,100.8264,-0.69306
,,,,,CES-D1-PDTA,,,,,,,,,PDTA,7705 SAR-8,ALCATEL-LUCENT,PDT,PENDOPO TALANG UBI,PALEMBANG,1,,103.83005,-3.27279
,,,,,CES-D1-PERA,,,,,,,,,PERA,7705 SAR-8,ALCATEL-LUCENT,PUB,PULAU BRAYAN,MEDAN,1,,98.68111,3.62763
,,,,,CES-D1-PGCA,,,,,,,,,PGCA,7705 SAR-8,ALCATEL-LUCENT,PGC,PALEMBANG CENTRUM,PALEMBANG,1,,104.74832,-2.97792
,,,,,CES-D1-PGKA,,,,,,,,,PGKA,7705 SAR-8,ALCATEL-LUCENT,PKR,PANGKALAN KERINCI,RIDAR,1,,101.85363,0.42203
,,,,,CES-D1-PGLA,,,,,,,,,PGLA,,ALCATEL-LUCENT,LSM,LHOKSEUMAWE,ACEH,1,,97.14528,5.18222
,,,,,CES-D1-PGPA,,,,,,,,,PGPA,7705 SAR-8,CISCO,PGP,PANGKAL PINANG,PANGKAL PINANG,1,,106.1131,-2.1175
,,,,,CES-D1-PGWA,,,,,,,,,PGWA,7705 SAR-8,ALCATEL-LUCENT,PDW,MDF PAGAR DEWA,BENGKULU,1,,102.31925,-3.84364
,,,,,CES-D1-PKLA,,,,,,,,,PKLA,7705 SAR-8,ALCATEL-LUCENT,PNA,PANGKALAN,PADANG,1,,100.62316,0.0411
,,,,,CES-D1-PKR-MILL,,,,,,,,,PKR,7705 SAR-8,ALCATEL-LUCENT,PBB,PAKANBARU,RIDAR,1,,101.85855,0.42196
,,,,,CES-D1-PKR-PECT,,,,,,,,,PKR,7705 SAR-8,ALCATEL-LUCENT,PBB,PAKANBARU,RIDAR,1,,101.85855,0.42196
,,,,,CES-D1-PKRA,,,,,,,,,PKRA,7705 SAR-8,ALCATEL-LUCENT,PKR,PANGKALAN KERINCI,RIDAR,1,,101.85363,0.42203
,,,,,CES-D1-PLUA,,,,,,,,,PLUA,7705 SAR-8,ALCATEL-LUCENT,,PULAU BURUNG,LAMPUNG,1,,105.17971,-5.36482
,,,,,CES-D1-PMBA,,,,,,,,,PMBA,7705 SAR-F,ALCATEL-LUCENT,PMB,PEMATANG REBA,RIDAR,1,,102.44158,-0.38271
,,,,,CES-D1-PMSC,,,,,,,,,PMSC,7705 SAR-8,ALCATEL-LUCENT,PMS,PEMATANG SIANTAR CENTRUM,SUMUT,1,,99.06259,2.95809
,,,,,CES-D1-PMSR,,,,,,,,,PMSR,7705 SAR-8,ALCATEL-LUCENT,RBM,PMS RAMBUNG MERAH,SUMUT,1,,99.07693,2.98912
,,,,,CES-D1-PMYA,,,,,,,,,PMYA,7705 SAR-8,ALCATEL-LUCENT,PMY,PEMATANG RAYA,SUMUT,1,,98.86313,2.96701
,,,,,CES-D1-PNBA,,,,,,,,,PNBA,7705 SAR-8,ALCATEL-LUCENT,PNB,PAKAN RABAA,PADANG,1,,100.45365,-1.49078
,,,,,CES-D1-PNIA,,,,,,,,,PNIA,7705 SAR-8,ALCATEL-LUCENT,PNI,PANBIL,RIKEP,1,,104.02466,1.07241
,,,,,CES-D1-PPJA,,,,,,,,,PPJA,7705 SAR-8,ALCATEL-LUCENT,PPJ,PADANG PANJANG,PADANG,1,,100.3989,-0.46306
,,,,,CES-D1-PPNA,,,,,,,,,PPNA,7705 SAR-8,ALCATEL-LUCENT,PPN,PASIR PANGARAIAN,RIDAR,1,,100.30108,0.8617
,,,,,CES-D1-PRAA,,,,,,,,,PRAA,7705 SAR-8,ALCATEL-LUCENT,PRA,PULAU RAKYAT,SUMUT,1,,99.61931,2.71056
,,,,,CES-D1-PRLA,,,,,,,,,PRLA,7705 SAR-8,ALCATEL-LUCENT,PRL,PEUREULAK,ACEH,1,,97.89445,4.80889
,,,,,CES-D1-PRMA,,,,,,,,,PRMA,7705 SAR-8,ALCATEL-LUCENT,PAM,PARIAMAN,PADANG,1,,100.12666,-0.62538
,,,,,CES-D1-PRRA,,,,,,,,,PRRA,7705 SAR-8,ALCATEL-LUCENT,PRR,PANGURURAN,SUMUT,1,,98.71,2.61
,,,,,CES-D1-PRSA,,,,,,,,,PRSA,,ALCATEL-LUCENT,PRS,PASAR USANG,PADANG,1,,100.3125,-0.73667
,,,,,CES-D1-PRTA,,,,,,,,,PRTA,7705 SAR-8,ALCATEL-LUCENT,PRT,PERCUT,MEDAN,1,,98.69645,3.5851
,,,,,CES-D1-PSAA,,,,,,,,,PSAA,7705 SAR-F,ALCATEL-LUCENT,PSA,PORSEA,SUMUT,1,,99.15639,2.44549
,,,,,CES-D1-PSPA,,,,,,,,,PSPA,7705 SAR-8,,PSP,PADANG SIDEMPUAN,SUMUT,1,,99.30495,1.44381
,,,,,CES-D1-PSPA-PLASA,,,,,,,,,PSPA,7705 SAR-8,ALCATEL-LUCENT,PSP,PADANG SIDEMPUAN,SUMUT,1,,99.30495,1.44381
,,,,,CES-D1-PUBA,,,,,,,,,PUBA,7705 SAR-8,ALCATEL-LUCENT,PUB,PULAU BRAYAN,MEDAN,1,,98.68111,3.62763
,,,,,CES-D1-PUKA,,,,,,,,,PUKA,7705 SAR-8,ALCATEL-LUCENT,PUK,PAUH KAMBAR,PADANG,1,,100.2136,-0.21639
,,,,,CES-D1-PWGA,,,,,,,,,PWGA,7705 SAR-8,ALCATEL-LUCENT,PWG,PERAWANG,RIDAR,1,,101.6119,0.66694
,,,,,CES-D1-PYBA,,,,,,,,,PYBA,7705 SAR-F,ALCATEL-LUCENT,PYB,PENYABUNGAN,SUMUT,1,,99.56444,0.86694
,,,,,CES-D1-PYKA,,,,,,,,,PYKA,7705 SAR-8,HUAWEI,PYK,PAYAKUMBUH,PADANG,1,,100.6244,-0.22861
,,,,,CES-D1-RAPA,,,,,,,,,RAPA,7705 SAR-8,JUNIPER,RAP,RANTAU PRAPAT,SUMUT,1,,99.83188,2.09868
,,,,,CES-D1-RBIA,,,,,,,,,RBIA,7705 SAR-8,ALCATEL-LUCENT,RBI,RUMBAI,RIDAR,1,,101.42698,0.56941
,,,,,CES-D1-RGTA,,,,,,,,,RGTA,7705 SAR-8,ALCATEL-LUCENT,RGT,RENGAT,RIDAR,1,,102.54732,-0.37414
,,,,,CES-D1-SAKA,,,,,,,,,SAKA,7705 SAR-8,ALCATEL-LUCENT,SAK,SIAK,RIDAR,1,,102.05225,0.79449
,,,,,CES-D1-SAPA,,,,,,,,,SAPA,7705 SAR-8,ALCATEL-LUCENT,SEA,SEIAPIT,RIDAR,1,,102.1562,1.12194
,,,,,CES-D1-SBGA,,,,,,,,,SBGA,7705 SAR-8,HUAWEI,SBG,SURABAYA SGW,SUMUT,1,,98.77653,1.74097
,,,,,CES-D1-SBLA,,,,,,,,,SBLA,7705 SAR-8,ALCATEL-LUCENT,SBL,SUMBUL,SUMUT,1,,98.36667,2.73333
,,,,,CES-D1-SBOA,,,,,,,,,SBOA,7705 SAR-8,ALCATEL-LUCENT,SBO,SEI BROMBANG,SUMUT,1,,100.1233,2.60889
,,,,,CES-D1-SCCA,,,,,,,,,SCCA,7705 SAR-8,ALCATEL-LUCENT,SCC,SICINCIN,PADANG,1,,100.2814,-0.56306
,,,,,CES-D1-SDKA,,,,,,,,,SDKA,7705 SAR-8,ALCATEL-LUCENT,SDK,SIDIKALANG,SUMUT,1,,98.31167,2.75097
,,,,,CES-D1-SETA,,,,,,,,,SETA,7705 SAR-8,ALCATEL-LUCENT,,SIMPANG EMPAT ASAHAN,SUMUT,1,,99.31462,2.71049
,,,,,CES-D1-SGDA,,,,,,,,,SGDA,7705 SAR-8,ALCATEL-LUCENT,SGD,SUNGAI DAREH,PADANG,1,,101.5042,-0.96639
,,,,,CES-D1-SGIA,,,,,,,,,SGIA,7705 SAR-8,ALCATEL-LUCENT,SGI,SIGLI,ACEH,1,,95.95639,5.38111
,,,,,CES-D1-SGPA,,,,,,,,,SGPA,7705 SAR-8,ALCATEL-LUCENT,SGP,SUNGAI PAKNING,RIDAR,1,,102.15696,1.36072
,,,,,CES-D1-SIBA,,,,,,,,,SIBA,7705 SAR-F,ALCATEL-LUCENT,SIB,SIBORONG-BORONG,SUMUT,1,,98.97306,2.21389
,,,,,CES-D1-SIGA,,,,,,,,,SIGA,7705 SAR-8,ALCATEL-LUCENT,SIG,SIMALANGGANG,PADANG,1,,100.31145,-0.33754
,,,,,CES-D1-SIHA,,,,,,,,,SIHA,7705 SAR-8,ALCATEL-LUCENT,SIH,SIBUHUAN,SUMUT,1,,99.74111,1.0475
,,,,,CES-D1-SIPA,,,,,,,,,SIPA,7705 SAR-F,,SIP,SIPIROK,SUMUT,1,,99.28167,1.59556
,,,,,CES-D1-SJJA,,,,,,,,,SJJA,7705 SAR-8,ALCATEL-LUCENT,SJJ,SIJUNJUNG,PADANG,1,,100.9378,-0.49472
,,,,,CES-D1-SKIA,,,,,,,,,SKIA,7705 SAR-8,ALCATEL-LUCENT,SKI,SUKARAMAI,MEDAN,1,,98.70145,3.56833
,,,,,CES-D1-SKNA,,,,,,,,,SKNA,7705 SAR-8,ALCATEL-LUCENT,SKN,SEKUPANG,RIKEP,1,,103.9499,1.1128
,,,,,CES-D1-SLKA,,,,,,,,,SLKA,7705 SAR-8,ALCATEL-LUCENT,SLK,SOLOK,PADANG,1,,100.6522,-0.78556
,,,,,CES-D1-SLMA,,,,,,,,,SLMA,7705 SAR-8,ALCATEL-LUCENT,SLM,SEI LIMAU,PADANG,1,,108.50852,0.3638
,,,,,CES-D1-SLNA,,,,,,,,,SLNA,7705 SAR-8,CISCO,SLN,SILUNGKANG,PADANG,1,,100.7569,-0.72917
,,,,,CES-D1-SLPA,,,,,,,,,SLPA,7705 SAR-8,ALCATEL-LUCENT,SLJ,SELAT PANJANG,RIDAR,1,,98.55952,3.70872
,,,,,CES-D1-SLUA,,,,,,,,,SLUA,7705 SAR-8,HUAWEI,SLU,SAGULUNG,RIKEP,1,,103.95711,1.04672
,,,,,CES-D1-SMMA,,,,,,,,,SMMA,7705 SAR-F,ALCATEL-LUCENT,SMM,SELIMEUM,ACEH,1,,95.57806,5.35972
,,,,,CES-D1-SMUA,,,,,,,,,SMUA,7705 SAR-8,ALCATEL-LUCENT,SMU,SIMABUR,PADANG,1,,100.50756,-0.46188
,,,,,CES-D1-SORA,,,,,,,,,SORA,7705 SAR-8,ALCATEL-LUCENT,SOK,SOREK,RIDAR,1,,102.07949,0.11374
,,,,,CES-D1-SPNA,,,,,,,,,SPNA,7705 SAR-8,ALCATEL-LUCENT,SPN,SUNGAI PENUH,JAMBI,1,,101.3944,-2.06453
,,,,,CES-D1-SPPA,,,,,,,,,SPPA,7705 SAR-8,ALCATEL-LUCENT,SPP,SIMPANG PERIUK,PALEMBANG,1,,102.82373,-3.29585
,,,,,CES-D1-SRTA,,,,,,,,,SRTA,7705 SAR-8,ALCATEL-LUCENT,SRT,SURANTIH,PADANG,1,,100.64655,-1.58555
,,,,,CES-D1-STAA,,,,,,,,,STAA,7705 SAR-8,ALCATEL-LUCENT,SIE,SITEBA,PADANG,1,,100.36845,0.88343
,,,,,CES-D1-STBA,,,,,,,,,STBA,7705 SAR-8,ALCATEL-LUCENT,STB,STABAT,MEDAN,1,,98.44222,3.74389
,,,,,CES-D1-SUMA,,,,,,,,,SUMA,7705 SAR-8,HUAWEI,SUM,SUMANI,PADANG,1,,100.5925,-0.71306
,,,,,CES-D1-SUNA,,,,,,,,,SUNA,7705 SAR-8,ALCATEL-LUCENT,SUN,SITIUNG,PADANG,1,,101.6936,-1.07389
,,,,,CES-D1-SUPA,,,,,,,,,SUPA,7705 SAR-8,ALCATEL-LUCENT,SUP,SUNGAI PUAR,PADANG,1,,100.4106,-0.35778
,,,,,CES-D1-SURA,,,,,,,,,SURA,7705 SAR-8,HUAWEI,SUR,SUNGAI RUMBAI,PADANG,1,,101.74,-1.22194
,,,,,CES-D1-SUSA,,,,,,,,,SUSA,7705 SAR-8,ALCATEL-LUCENT,SUS,SUBULUSSALAM,ACEH,1,,98.00083,2.64389
,,,,,CES-D1-SWLA,,,,,,,,,SWLA,7705 SAR-8,ALCATEL-LUCENT,SWL,SAWAHLUNTO,PADANG,1,,100.7667,-0.67139
,,,,,CES-D1-TAKA,,,,,,,,,TAKA,7705 SAR-8,ALCATEL-LUCENT,TAK,TALUK KUANTAN,RIDAR,1,,101.55829,-0.53443
,,,,,CES-D1-TAMA,,,,,,,,,TAMA,7705 SAR-8,ALCATEL-LUCENT,TAM,TANJUNG ENIM,PALEMBANG,1,,103.79632,-3.75158
,,,,,CES-D1-TAPA,,,,,,,,,TAPA,7705 SAR-8,ALCATEL-LUCENT,TAP,TAPUS,PADANG,1,,100.0397,0.43833
,,,,,CES-D1-TBAA,,,,,,,,,TBAA,7705 SAR-8,ALCATEL-LUCENT,TIN,TIBAN,RIKEP,1,,106.21905,3.21604
,,,,,CES-D1-TBHA,,,,,,,,,TBHA,7705 SAR-8,ALCATEL-LUCENT,TBH,TEMBILAHAN,RIDAR,1,,103.1589,-0.32562
,,,,,CES-D1-TBIA,,,,,,,,,TBIA,7705 SAR-8 v2,ALCATEL-LUCENT,TBI,TOBOALI,PANGKAL PINANG,1,,106.4608,-3.00556
,,,,,CES-D1-TBK-SKY,,,,,,,,,TBK,7705 SAR-8,ALCATEL-LUCENT,TBK,TANJUNG BALAI KARIMUN,RIKEP,1,,103.4389,0.99039
,,,,,CES-D1-TBTA,,,,,,,,,TBTA,7705 SAR-8,ALCATEL-LUCENT,TBT,TEBINGTINGGI,SUMUT,1,,99.17056,3.33563
,,,,,CES-D1-TGBA,,,,,,,,,TGBA,7705 SAR-8,ALCATEL-LUCENT,TAB,TANJUNG BATU,PALEMBANG,1,,104.5961,-3.37278
,,,,,CES-D1-TGDA,,,,,,,,,TGDA,7705 SAR-8,ALCATEL-LUCENT,TGD,TANJUNG GADING,SUMUT,1,,99.32972,3.41
,,,,,CES-D1-TIBA,,,,,,,,,TIBA,7705 SAR-8,ALCATEL-LUCENT,TIB,TIGA BINANGA,SUMUT,1,,99.77258,1.39875
,,,,,CES-D1-TJBA,,,,,,,,,TJBA,7705 SAR-8,ALCATEL-LUCENT,TJB,TANJUNG BALAI,SUMUT,1,,99.80611,2.96465
,,,,,CES-D1-TJKA,,,,,,,,,TJKA,7705 SAR-8,ALCATEL-LUCENT,TJK,TANJUNG KARANG,LAMPUNG,1,,105.2563,-5.41084
,,,,,CES-D1-TJMA,,,,,,,,,TJMA,7705 SAR-8,ALCATEL-LUCENT,TJM,TANJUNG MULIA,MEDAN,1,,98.67171,3.67839
,,,,,CES-D1-TJRA,,,,,,,,,TJRA,7705 SAR-8,ALCATEL-LUCENT,TJR,TANJUNG MORAWA,MEDAN,1,,98.77889,3.52333
,,,,,CES-D1-TJTA,,,,,,,,,TJTA,7705 SAR-8,ALCATEL-LUCENT,TJT,TANJUNG BATU RIKEP,RIKEP,1,,103.4603,0.66667
,,,,,CES-D1-TKUA,,,,,,,,,TKUA,7705 SAR-8,ALCATEL-LUCENT,TKU,TIKU,PADANG,1,,99.61793,-0.40091
,,,,,CES-D1-TLBA,,,,,,,,,TLBA,7705 SAR-8,ALCATEL-LUCENT,TLB,TELUK BAYUR,PADANG,1,,100.3753,-0.89944
,,,,,CES-D1-TLKA,,,,,,,,,TLKA,7705 SAR-8,ALCATEL-LUCENT,TLK,TALANG KELAPA,PALEMBANG,1,,104.72288,-2.93876
,,,,,CES-D1-TLNA,,,,,,,,,TLNA,7705 SAR-8,ALCATEL-LUCENT,TLN,TALANG,PADANG,1,,104.7367,-2.9375
,,,,,CES-D1-TMUA,,,,,,,,,TMUA,7705 SAR-8,ALCATEL-LUCENT,TMU,TEMBUNG,MEDAN,1,,98.75431,3.59486
,,,,,CES-D1-TMUA-SBB,,,,,,,,,TMUA,7705 SAR-8,ALCATEL-LUCENT,TMU,TEMBUNG,MEDAN,1,,98.75431,3.59486
,,,,,CES-D1-TORA,,,,,,,,,TORA,,,,,,1,,98.67254,3.59294
,,,,,CES-D1-TPIA,,,,,,,,,TPIA,7705 SAR-8,ALCATEL-LUCENT,TPI,TANJUNG PINANG,RIKEP,1,,104.4513,0.92609
,,,,,CES-D1-TPNA,,,,,,,,,TPNA,7705 SAR-8,ALCATEL-LUCENT,TPN,TAPAN,PADANG,1,,101.0822,-2.14861
,,,,,CES-D1-TRSA,,,,,,,,,TRSA,7705 SAR-F,ALCATEL-LUCENT,TRS,TARUSAN,PADANG,1,,100.4794,-1.24306
,,,,,CES-D1-TSIA,,,,,,,,,TSIA,7705 SAR-8,ALCATEL-LUCENT,,TAMBUSAI,RIDAR,1,,99.08154,0.86174
,,,,,CES-D1-TTGA,,,,,,,,,TTGA,7705 SAR-8,ALCATEL-LUCENT,TTG,TUNTUNGAN,MEDAN,1,,98.62167,3.52139
,,,,,CES-D1-TTJA,,,,,,,,,TTJA,7705 SAR-8,ALCATEL-LUCENT,TTJ,TEBINGTINGGI JAMBI,JAMBI,1,,103.07458,-1.01966
,,,,,CES-D1-TTNA,,,,,,,,,TTNA,7705 SAR-8,ALCATEL-LUCENT,TTN,TAPAKTUAN,ACEH,1,,97.18,3.25
,,,,,CES-D1-TUBA,,,,,,,,,TUBA,7705 SAR-8,HUAWEI,TUB,TANJUNG UBAN,RIKEP,1,,104.22892,1.07194
,,,,,CES-D1-TWIA,,,,,,,,,TWIA,7705 SAR-8,ALCATEL-LUCENT,TWI,TALAWI,PADANG,1,,100.7353,-0.60139
,,,,,CES-D1-UBTA,,,,,,,,,UBTA,7705 SAR-8,HUAWEI,UBT,UJUNG BATU,RIDAR,1,,100.5281,0.71162
,,,,,CES-D1-UGDA,,,,,,,,,UGDA,7705 SAR-8,ALCATEL-LUCENT,UGD,UJUNG GADING,PADANG,1,,99.54663,0.2747
,,,,,CES-D1-ULKA,,,,,,,,,ULKA,7705 SAR-8,ALCATEL-LUCENT,ULK,ULAKKARANG,PADANG,1,,100.3506,-0.91083
,,,,,CES-D1-UNDA,,,,,,,,,UNDA,7705 SAR-8,ALCATEL-LUCENT,UNT,UNIT,LAMPUNG,1,,104.25517,-4.89149
,,,,,CES-D2-JT,,,,,,,,,JT,7705 SAR-8 v2,ALCATEL-LUCENT,JTN,JATINEGARA,JAKTIM,2,,106.87385,-6.22081
,,,,,CES-D4-TGL,,,,,,,,,TGL,,,,,,4,,109.13612,-6.87167
,,,,,CES-D6-ASM,,,,,,,,,ASM,7705 SAR-8,ALCATEL-LUCENT,KIP,KINTAP,BANJARMASIN,6,,115.2336,-3.84971
,,,,,CES-D6-BJM,,,,,,,,,BJM,7705 SAR-8,ALCATEL-LUCENT,BJM,BANJARMASIN,BANJARMASIN,6,,114.5919,-3.32508
,,,,,CES-D6-BLN,,,,,,,,,BLN,7705 SAR-8,ALCATEL-LUCENT,BLC,BATULICIN,BANJARMASIN,6,,115.28931,-3.63496
,,,,,CES-D6-BPP,,,,,,,,,BPP,7705 SAR-8,HUAWEI,BRU,BALIKPAPAN BARU,BALIKPAPAN,6,,116.8728,-1.2391
,,,,,CES-D6-BRU,,,,,,,,,BRU,7705 SAR-8,ALCATEL-LUCENT,BRU,BALIKPAPAN BARU,BALIKPAPAN,6,,116.8728,-1.2391
,,,,,CES-D6-BTI,,,,,,,,,BTI,7705 SAR-8,ALCATEL-LUCENT,BTB,BATI-BATI,BANJARMASIN,6,,114.70528,-3.59583
,,,,,CES-D6-KNTP,,,,,,,,,KNTP,7705 SAR-8,ALCATEL-LUCENT,KIP,KINTAP,BANJARMASIN,6,,115.2336,-3.84971
,,,,,CES-D6-KSGN,,,,,,,,,KSGN,7705 SAR-8,ALCATEL-LUCENT,KSO,KASONGAN,PALANGKARAYA,6,,113.39058,-1.91091
,,,,,CES-D6-LKN,,,,,,,,,LKN,7705 SAR-8,ALCATEL-LUCENT,LOB,LOABAKUNG,SAMARINDA,6,,117.1113,-0.52064
,,,,,CES-D6-LKT,,,,,,,,,LKT,7705 SAR-8,ALCATEL-LUCENT,LKT,LHOKTUAN,SAMARINDA,6,,117.46588,0.17568
,,,,,CES-D6-PGKT,,,,,,,,,PGKT,7705 SAR-8,ALCATEL-LUCENT,PMK,PEMANGKAT,PONTIANAK,6,,108.9845,1.1685
,,,,,CES-D6-PLI,,,,,,,,,PLI,7705 SAR-8,ALCATEL-LUCENT,PLE,PLEIHARI,BANJARMASIN,6,,114.7695328,-3.8013937
,,,,,CES-D6-PLR,,,,,,,,,PLR,7705 SAR-8,ALCATEL-LUCENT,PAA,PALARAN,SAMARINDA,6,,117.1818,-0.5735
,,,,,CES-D6-PTK,,,,,,,,,PTK,7705 SAR-8,ALCATEL-LUCENT,PTK,PONTIANAK CENTRUM,PONTIANAK,6,,109.3335,-0.03325
,,,,,CES-D6-SAG,,,,,,,,,SAG,7705 SAR-8,ALCATEL-LUCENT,SGU,SANGGAU,PONTIANAK,6,,110.18629,0.47249
,,,,,CES-D6-SKWG,,,,,,,,,SKWG,7705 SAR-8,ALCATEL-LUCENT,SNW,SINGKAWANG,PONTIANAK,6,,108.97859,0.90584
,,,,,CES-D6-SMBS,,,,,,,,,SMBS,7705 SAR-8,ALCATEL-LUCENT,SMB,SAMBAS,PONTIANAK,6,,109.29847,1.36089
,,,,,CES-D6-SSK,,,,,,,,,SSK,7705 SAR-8,ALCATEL-LUCENT,SGU,SANGGAU,PONTIANAK,6,,109.90987,0.29354
,,,,,CES-D6-TKS,,,,,,,,,TKS,7705 SAR-8,ALCATEL-LUCENT,TKI,TAKISUNG,BANJARMASIN,6,,114.52947,-3.87296
,,,,,CES-D6-TRD,,,,,,,,,TRD,7705 SAR-8,ALCATEL-LUCENT,TRD,TANJUNG REDEB,TARAKAN,6,,117.49687,2.14967
,,,,,CES-D6-TRK,,,,,,,,,TRK,7705 SAR-8,ALCATEL-LUCENT,TRK,TARAKAN,TARAKAN,6,,117.59438,3.30287
,,,,,CES-D6-ULN,,,,,,,,,ULN,7705 SAR-8,ALCATEL-LUCENT,ULI,ULIN,BANJARMASIN,6,,114.61059,-3.33031
,,,,,CES-JWB-BJN,,,,,,,,,BJN,7705 SAR-8,ALCATEL-LUCENT,BJA,BANJARAN,BANDUNG BARAT,3,,107.59083,-7.04785
,,,,,CES-JWB-BTJ,,,,,,,,,BTJ,7705 SAR-8,ALCATEL-LUCENT,BTJ,BATU JAJAR,BANDUNG BARAT,3,,107.5022,-6.90217
,,,,,CES-JWB-CBD,,,,,,,,,CBD,7705 SAR-8,ALCATEL-LUCENT,CBD,CIBADAK,SUKABUMI,3,,106.7802,-6.88894
,,,,,CES-JWB-CBN,,,,,,,,,CBN,7705 SAR-8,ALCATEL-LUCENT,CBN,CIREBON,CIREBON,3,,108.5612,-6.71619
,,,,,CES-JWB-CCD,,,,,,,,,CCD,7705 SAR-8,ALCATEL-LUCENT,CCD,CICADAS,BANDUNG,3,,107.64958,-6.90543
,,,,,CES-JWB-CLK,,,,,,,,,CLK,7705 SAR-8,ALCATEL-LUCENT,CCL,CICALENGKA,BANDUNG BARAT,3,,107.57814,-6.92949
,,,,,CES-JWB-CMI,,,,,,,,,CMI,7705 SAR-8,ALCATEL-LUCENT,CMI,CIMAHI,BANDUNG BARAT,3,,107.5489,-6.87819
,,,,,CES-JWB-GGK,,,,,,,,,GGK,7705 SAR-8,ALCATEL-LUCENT,GGK,BANDUNG GEGERKALONG,BANDUNG,3,,107.5893,-6.87014
,,,,,CES-JWB-HAR,,,,,,,,,HAR,7705 SAR-8,ALCATEL-LUCENT,HAR,HAURGEULIS,CIREBON,3,,107.9465,-6.43839
,,,,,CES-JWB-HGM,,,,,,,,,HGM,7705 SAR-8,ALCATEL-LUCENT,HGM,BANDUNG HEGARMANAH,BANDUNG,3,,107.602,-6.88256
,,,,,CES-JWB-IMY,,,,,,,,,IMY,7705 SAR-8,ALCATEL-LUCENT,IMY,INDRAMAYU,CIREBON,3,,107.26684,-7.10091
,,,,,CES-JWB-JCG,,,,,,,,,JCG,7705 SAR-8,ALCATEL-LUCENT,JCG,JALAN CAGAK,BANDUNG,3,,107.6886,-6.6777
,,,,,CES-JWB-JPT,,,,,,,,,JPT,7705 SAR-8,ALCATEL-LUCENT,,JAPATI,BANDUNG,3,,107.61679,-6.89944
,,,,,CES-JWB-KAL,,,,,,,,,KAL,7705 SAR-8,ALCATEL-LUCENT,KAL,CIAMIS,TASIKMALAYA,3,,108.34348,-7.32589
,,,,,CES-JWB-MJA,,,,,,,,,MJA,7705 SAR-8,ALCATEL-LUCENT,MJA,MAJALAYA,BANDUNG BARAT,3,,108.8042,-6.84194
,,,,,CES-JWB-NJG,,,,,,,,,NJG,7705 SAR-8,ALCATEL-LUCENT,NJG,NANJUNG,BANDUNG BARAT,3,,107.542,-6.92142
,,,,,CES-JWB-PDLA,,,,,,,,,PDLA,7705 SAR-8,ALCATEL-LUCENT,PDL,PADALARANG 5ESS,BANDUNG BARAT,3,,107.489,-6.83711
,,,,,CES-JWB-PGN,,,,,,,,,PGN,7705 SAR-8,ALCATEL-LUCENT,PAX,PANGANDARAN,TASIKMALAYA,3,,108.26249,-7.45643
,,,,,CES-JWB-PLN,,,,,,,,,PLN,7705 SAR-8,ALCATEL-LUCENT,PLN,PANGALENGAN,BANDUNG BARAT,3,,107.55295,-7.18901
,,,,,CES-JWB-RJW,,,,,,,,,RJW,7705 SAR-8,ALCATEL-LUCENT,RJW,BANDUNG RAJAWALI,BANDUNG BARAT,3,,107.5756,-6.91241
,,,,,CES-JWB-SDA,,,,,,,,,SDA,7705 SAR-8,ALCATEL-LUCENT,SDA,SINDANGLAYA,SUKABUMI,3,,107.66111,-6.90329
,,,,,CES-JWB-SGA,,,,,,,,,SGA,7705 SAR-8,ALCATEL-LUCENT,SGA,SUKANEGARA,SUKABUMI,3,,107.1293,-7.10157
,,,,,CES-JWB-SKB,,,,,,,,,SKB,7705 SAR-8,ALCATEL-LUCENT,SKB,SUKABUMI,SUKABUMI,3,,98.70146,3.56785
,,,,,CES-JWB-SKI,,,,,,,,,SKI,7705 SAR-8,ALCATEL-LUCENT,CJR,CIANJUR,SUKABUMI,3,,107.13826,-6.82211
,,,,,CES-JWB-SNT,,,,,,,,,SNT,7705 SAR-8,ALCATEL-LUCENT,LBG,LEMBONG,BANDUNG,3,,107.6163,-6.80969
,,,,,CES-JWB-SOR,,,,,,,,,SOR,7705 SAR-8,ALCATEL-LUCENT,SOR,SOREANG,BANDUNG BARAT,3,,107.5248,-7.02178
,,,,,CES-JWB-SUB,,,,,,,,,SUB,7705 SAR-8,ALCATEL-LUCENT,SUB,SUBANG,BANDUNG,3,,107.7576575,-6.5562645
,,,,,CES-JWB-TGA,,,,,,,,,TGA,7705 SAR-8,ALCATEL-LUCENT,TGA,BANDUNG TEGALLEGA,BANDUNG,3,,107.6088,-6.94695
,,,,,CES-JWB-TGN,,,,,,,,,TGN,7705 SAR-8,ALCATEL-LUCENT,TGN,TANGGEUNG,SUKABUMI,3,,107.12377,-7.26733
,,,,,CES-JWB-TSM,,,,,,,,,TSM,7705 SAR-8,ALCATEL-LUCENT,TSM,TASIKMALAYA,TASIKMALAYA,3,,108.2222,-7.32472
,,,,,CES-JWB-UBR,,,,,,,,,UBR,7705 SAR-8,ALCATEL-LUCENT,UBR,BANDUNG UJUNGBERUNG,BANDUNG,3,,107.7094,-6.92161
,,,,,CES2-D1-BDSA,,,,,,,,,BDSA,7705 SAR-8,ALCATEL-LUCENT,DGS,BATAM BUKIT DANGAS STPR,RIKEP,1,,103.939,1.12389
,,,,,CES2-D1-BKTA,,,,,,,,,BKTA,7705 SAR-8,ALCATEL-LUCENT,BKT,BUKITTINGGI,PADANG,1,,100.3694,-0.31111
,,,,,CES2-D1-BLTA,,,,,,,,,BLTA,7705 SAR-8,ALCATEL-LUCENT,BLT,BELITANG,PALEMBANG,1,,104.64034,-4.10926
,,,,,CES2-D1-BNAC,,,,,,,,,BNAC,7705 SAR-8,ALCATEL-LUCENT,BNA,BANDA ACEH CENTRUM,ACEH,1,,95.31973,5.5525
,,,,,CES2-D1-BTC,,,,,,,,,BTC,7705 SAR-8,ALCATEL-LUCENT,BTC,BATAM CENTRE,RIKEP,1,,104.05114,1.11527
,,,,,CES2-D1-CTDA,,,,,,,,,CTDA,7705 SAR-8,ALCATEL-LUCENT,CTD,CINTA DAMAI,MEDAN,1,,98.62658,3.59223
,,,,,CES2-D1-JBCA,,,,,,,,,JBCA,7705 SAR-8,ALCATEL-LUCENT,JMB,JAMBI,JAMBI,1,,103.6176,-1.59317
,,,,,CES2-D1-MDC,,,,,,,,,MDC,7705 SAR-8,ALCATEL-LUCENT,MDC,MEDAN CENTRUM,MEDAN,1,,98.70161,3.56844
,,,,,CES2-D1-PBRC,,,,,,,,,PBRC,7705 SAR-8,ALCATEL-LUCENT,PBR,PAKANBARU,RIDAR,1,,101.44796,-0.5244
,,,,,CES2-D1-PDC,,,,,,,,,PDC,7705 SAR-8,HUAWEI,PDC,PADANG CENTRUM,PADANG,1,,100.3533,-0.95278
,,,,,CES2-D1-PGCA,,,,,,,,,PGCA,7705 SAR-8,ALCATEL-LUCENT,PGC,PALEMBANG CENTRUM,PALEMBANG,1,,104.74832,-2.97792
,,,,,CES2-D1-PMSC,,,,,,,,,PMSC,7705 SAR-8,ALCATEL-LUCENT,PMS,PEMATANG SIANTAR CENTRUM,SUMUT,1,,99.06259,2.95809
,,,,,CES2-D1-SKIA,,,,,,,,,SKIA,7705 SAR-8,ALCATEL-LUCENT,SKI,SUKARAMAI,MEDAN,1,,98.70145,3.56833
,,,,,CES2-D1-TLKA,,,,,,,,,TLKA,7705 SAR-8,ALCATEL-LUCENT,TLK,TALANG KELAPA,PALEMBANG,1,,104.72288,-2.93876
,,,,,CES2-D2-JT,,,,,,,,,JT,7705 SAR-8 v2,ALCATEL-LUCENT,JTN,JATINEGARA,JAKTIM,2,,106.87385,-6.22081
,,,,,CES2-D6-BJM,,,,,,,,,BJM,7705 SAR-8,ALCATEL-LUCENT,BJM,BANJARMASIN,BANJARMASIN,6,,114.5919,-3.32508
,,,,,CES2-D6-PTK,,,,,,,,,PTK,7705 SAR-8,ALCATEL-LUCENT,PTK,PONTIANAK CENTRUM,PONTIANAK,6,,109.3335,-0.03325
,,,,,CES2-JWB-CCD,,,,,,,,,CCD,7705 SAR-8,ALCATEL-LUCENT,CCD,CICADAS,BANDUNG,3,,107.64958,-6.90543
,,,,,CES2-JWB-RJW,,,,,,,,,RJW,7705 SAR-8,ALCATEL-LUCENT,RJW,BANDUNG RAJAWALI,BANDUNG BARAT,3,,107.5756,-6.91241
,,,,,CES2-JWB-SNT,,,,,,,,,SNT,7705 SAR-8,ALCATEL-LUCENT,SNT,LEMBONG,BANDUNG,3,,107.6163,-6.80969
,,,,,CES3-D1-BDSA,,,,,,,,,BDSA,7705 SAR-8,ALCATEL-LUCENT,DGS,BATAM BUKIT DANGAS STPR,RIKEP,1,,103.939,1.12389
,,,,,CES3-D1-BKTA,,,,,,,,,BKTA,7705 SAR-8,ALCATEL-LUCENT,BKT,BUKITTINGGI,PADANG,1,,100.3694,-0.31111
,,,,,CES3-D1-PBRC,,,,,,,,,PBRC,7705 SAR-8,ALCATEL-LUCENT,PBR,PAKANBARU,RIDAR,1,,101.44796,-0.5244
,,,,,CES3-D1-PDC,,,,,,,,,PDC,7705 SAR-8,ALCATEL-LUCENT,PDC,PADANG CENTRUM,PADANG,1,,100.3533,-0.95278
,,,,,CES3-D1-PMSC,,,,,,,,,PMSC,7705 SAR-8,ALCATEL-LUCENT,PMS,PEMATANG SIANTAR CENTRUM,SUMUT,1,,99.06259,2.95809
,,,,,CES3-JWB-RJW,,,,,,,,,RJW,7705 SAR-8,ALCATEL-LUCENT,RJW,BANDUNG RAJAWALI,BANDUNG BARAT,3,,107.5756,-6.91241
,,,,,CES4-D1-BDSA,,,,,,,,,BDSA,7705 SAR-8,ALCATEL-LUCENT,DGS,BATAM BUKIT DANGAS STPR,RIKEP,1,,103.939,1.12389
,,,,,CES4-D1-BKTA,,,,,,,,,BKTA,7705 SAR-8,ALCATEL-LUCENT,BKT,BUKITTINGGI,PADANG,1,,100.3694,-0.31111
,,,,,CES4-D1-MDC,,,,,,,,,MDC,7705 SAR-8,ALCATEL-LUCENT,MDC,MEDAN CENTRUM,MEDAN,1,,98.70161,3.56844
,,,,,CES4-D1-PBRC,,,,,,,,,PBRC,7705 SAR-8,ALCATEL-LUCENT,PBR,PAKANBARU,RIDAR,1,,101.44796,-0.5244
,,,,,CES4-D1-PDC,,,,,,,,,PDC,7705 SAR-8,ALCATEL-LUCENT,PDC,PADANG CENTRUM,PADANG,1,,100.3533,-0.95278
,,,,,CES4-JWB-RJW,,,,,,,,,RJW,7705 SAR-8,ALCATEL-LUCENT,RJW,BANDUNG RAJAWALI,BANDUNG BARAT,3,,107.5756,-6.91241
,,,,,CES4-JWB-SNT,,,,,,,,,SNT,7705 SAR-8,ALCATEL-LUCENT,SNT,LEMBONG,BANDUNG,3,,107.6163,-6.80969
,,,,,CES5-D1-BDSA,,,,,,,,,BDSA,7705 SAR-8,ALCATEL-LUCENT,DGS,BATAM BUKIT DANGAS STPR,RIKEP,1,,103.939,1.12389
,,,,,CES5-D1-MDC,,,,,,,,,MDC,7705 SAR-F,ALCATEL-LUCENT,MDC,MEDAN CENTRUM,MEDAN,1,,98.70161,3.56844
,,,,,CES5-D1-PBRC,,,,,,,,,PBRC,7705 SAR-8,ALCATEL-LUCENT,PBR,PAKANBARU,RIDAR,1,,101.44796,-0.5244
,,,,,CES5-D1-PDC,,,,,,,,,PDC,,,PDC,PADANG CENTRUM,PADANG,1,,100.3533,-0.95278
,,,,,CES5-D1-PMSC,,,,,,,,,PMSC,7705 SAR-8,ALCATEL-LUCENT,PMS,PEMATANG SIANTAR CENTRUM,SUMUT,1,,99.06259,2.95809
,,,,,CES5-D3-LBG,,,,,,,,,LBG,,,LBG,LEMBONG,BANDUNG,3,,107.6163,-6.80969
,,,,,CES5-JWB-RJW,,,,,,,,,RJW,7705 SAR-8,ALCATEL-LUCENT,RJW,BANDUNG RAJAWALI,BANDUNG BARAT,3,,107.5756,-6.91241
,,,,,CES5-JWB-SNT,,,,,,,,,SNT,7705 SAR-8,ALCATEL-LUCENT,SNT,LEMBONG,BANDUNG,3,,107.6163,-6.80969
,,,,,CES6-D1-BDSA,,,,,,,,,BDSA,7705 SAR-8,ALCATEL-LUCENT,DGS,BATAM BUKIT DANGAS STPR,RIKEP,1,,103.939,1.12389
,,,,,CES6-JWB-RJW,,,,,,,,,RJW,7705 SAR-8,ALCATEL-LUCENT,RJW,BANDUNG RAJAWALI,BANDUNG BARAT,3,,107.5756,-6.91241
,,,,,CES6-JWB-SNT,,,,,,,,,SNT,7705 SAR-8,ALCATEL-LUCENT,SNT,LEMBONG,BANDUNG,3,,107.6163,-6.80969
,,,,,CES7-D1-MDC,,,,,,,,,MDC,7705 SAR-8,ALCATEL-LUCENT,MDC,MEDAN CENTRUM,MEDAN,1,,98.70161,3.56844
,,,,,CES7-D1-PBRC,,,,,,,,,PBRC,7705 SAR-8,ALCATEL-LUCENT,PBR,PAKANBARU,RIDAR,1,,101.44796,-0.5244
,,,,,CES7-JWB-RJW,,,,,,,,,RJW,7705 SAR-8,ALCATEL-LUCENT,RJW,BANDUNG RAJAWALI,BANDUNG BARAT,3,,107.5756,-6.91241
,,,,,CES8-D1-MDC,,,,,,,,,MDC,7705 SAR-8,ALCATEL-LUCENT,MDC,MEDAN CENTRUM,MEDAN,1,,98.70161,3.56844
,,,,,CES8-D1-PBRC,,,,,,,,,PBRC,7705 SAR-8,ALCATEL-LUCENT,PBR,PAKANBARU,RIDAR,1,,101.44796,-0.5244
,,,,,CES8-JWB-RJW,,,,,,,,,RJW,7705 SAR-8,ALCATEL-LUCENT,RJW,BANDUNG RAJAWALI,BANDUNG BARAT,3,,107.5756,-6.91241
,,,,,CES9-D1-MDC,,,,,,,,,MDC,,ALCATEL-LUCENT,MDC,MEDAN CENTRUM,MEDAN,1,,98.70161,3.56844
,,,,,CGW-ID-TLK.BDS,,,,,,,,,TLK,,,TLK,TALANG KELAPA,PALEMBANG,1,,104.72288,-2.93876
,,,,,CGW-ID-TLK.MDO,,,,,,,,,TLK,,,TLK,TALANG KELAPA,PALEMBANG,1,,104.72288,-2.93876
,,,,,CGW-ID-TLK.PNK,,,,,,,,,TLK,,,TLK,TALANG KELAPA,PALEMBANG,1,,104.72288,-2.93876
,,,,,CGW2-ID-TLK.BDS,,,,,,,,,TLK,,,TLK,TALANG KELAPA,PALEMBANG,1,,104.72288,-2.93876
,,,,,CGW2-ID-TLK.BTC,,,,,,,,,TLK,,,TLK,TALANG KELAPA,PALEMBANG,1,,104.72288,-2.93876
,,,,,GPO00-D4-KTA-4FAS,,,,,,,,,KTA,AN5516-04,,KTA,KUTOARJO,MAGELANG,4,,109.9214742,-7.7128436
,,,,,GPON-D2-LGK-5LAB,,,,,,,,,LGK,7360 ISAM FX R6.5,,LGK,LEGOK,TANGERANG,2,,106.6066,-6.25706
,,,,,GPON-D2-TA-4KDY,,,,,,,,,KDY,OTHER,,KDY,KEDOYA,JAKBAR,2,,106.7595,-6.18061
,,,,,GPON00-D1-ABA-2,,,,,,,,,ABA,MA5600T,HUAWEI,ABA,AMBARITA,SUMUT,1,,98.84361,2.6775
,,,,,GPON00-D1-ABG-2,,,,,,,,,ABG,MA5800-X17,,ABG,AIR BANGIS,PADANG,1,,100.0011,-0.20611
,,,,,GPON00-D1-AGR-2,,,,,,,,,AGR,MA5600T,HUAWEI,AGR,ARGA MAKMUR,BENGKULU,1,,102.1944,-3.43889
,,,,,GPON00-D1-AGR-3KRP,,,,,,,,,AGR,OTHER,NOKIA,AGR,ARGA MAKMUR,BENGKULU,1,,102.1944,-3.43889
,,,,,GPON00-D1-AGR-3KTH,,,,,,,,,AGR,C300v2,NOKIA,AGR,ARGA MAKMUR,BENGKULU,1,,102.1944,-3.43889
,,,,,GPON00-D1-AGR-3PDJ,,,,,,,,,AGR,C320v2,NOKIA,AGR,ARGA MAKMUR,BENGKULU,1,,102.1944,-3.43889
,,,,,GPON00-D1-AGR-3PLS,,,,,,,,,AGR,,,AGR,ARGA MAKMUR,BENGKULU,1,,102.1944,-3.43889
,,,,,GPON00-D1-ALH-2,,,,,,,,,ALH,,NOKIA,ALH,ALAHAN PANJANG,PADANG,1,,100.7881,-1.08194
,,,,,GPON00-D1-ALH-2SRI,,,,,,,,,ALH,MA5800-X2,HUAWEI,ALH,ALAHAN PANJANG,PADANG,1,,100.7881,-1.08194
,,,,,GPON00-D1-AMK-2,,,,,,,,,AMK,MA5600T,HUAWEI,AMK,AIR MOLEK,RIDAR,1,,102.29389,-0.36064
,,,,,GPON00-D1-AMK-2KMT,,,,,,,,,AMK,,,AMK,AIR MOLEK,RIDAR,1,,102.29389,-0.36064
,,,,,GPON00-D1-AMK-2UKUI,,,,,,,,,AMK,MA5608T,NOKIA,AMK,AIR MOLEK,RIDAR,1,,102.29389,-0.36064
,,,,,GPON00-D1-AMK-3KLJ,,,,,,,,,AMK,OTHER,NOKIA,AMK,AIR MOLEK,RIDAR,1,,102.29389,-0.36064
,,,,,GPON00-D1-AMK-3SGL,,,,,,,,,AMK,C620,,AMK,AIR MOLEK,RIDAR,1,,102.29389,-0.36064
,,,,,GPON00-D1-ANP-2,,,,,,,,,ANP,MA5600T,HUAWEI,ANP,AEK KANOPAN,SUMUT,1,,99.65528,2.57194
,,,,,GPON00-D1-ANP-2FAR,,,,,,,,,ANP,MA5800-X2,HUAWEI,ANP,AEK KANOPAN,SUMUT,1,,99.65528,2.57194
,,,,,GPON00-D1-ANR-2,,,,,,,,,ANR,MA5600T,HUAWEI,ANR,AEK NABARA,SUMUT,1,,99.95174,2.06549
,,,,,GPON00-D1-ARK-3,,,,,,,,,ARK,OTHER,,ARK,ARENGKA,RIDAR,1,,101.41907,0.46632
,,,,,GPON00-D1-ARK-3AHT,,,,,,,,,ARK,OTHER,,ARK,ARENGKA,RIDAR,1,,101.41907,0.46632
,,,,,GPON00-D1-ARK-3DBK,,,,,,,,,ARK,C320v2,NOKIA,ARK,ARENGKA,RIDAR,1,,101.41907,0.46632
,,,,,GPON00-D1-ARK-3KBG,,,,,,,,,ARK,OTHER,,ARK,ARENGKA,RIDAR,1,,101.41907,0.46632
,,,,,GPON00-D1-ARK-3SGA,,,,,,,,,ARK,,,ARK,ARENGKA,RIDAR,1,,101.41907,0.46632
,,,,,GPON00-D1-ARK-3SGL,,,,,,,,,ARK,C620,,ARK,ARENGKA,RIDAR,1,,101.41907,0.46632
,,,,,GPON00-D1-BAG-3,,,,,,,,,BAG,C300v2,NOKIA,BAG,BAGAN SIAPI-API,RIDAR,1,,100.80753,2.15895
,,,,,GPON00-D1-BAG-3KBU,,,,,,,,,BAG,OTHER,NOKIA,BAG,BAGAN SIAPI-API,RIDAR,1,,100.80753,2.15895
,,,,,GPON00-D1-BAG-3SKD,,,,,,,,,BAG,C320v2,NOKIA,BAG,BAGAN SIAPI-API,RIDAR,1,,100.80753,2.15895
,,,,,GPON00-D1-BAK-2,,,,,,,,,BAK,MA5600T,HUAWEI,BAK,BAKONGAN,ACEH,1,,97.48222,2.92639
,,,,,GPON00-D1-BAK-2TMN,,,,,,,,,BAK,,,BAK,BAKONGAN,ACEH,1,,97.48222,2.92639
,,,,,GPON00-D1-BAS-3,,,,,,,,,BAS,C300v2,NOKIA,BAS,BENGKALIS,RIDAR,1,,102.1107,1.46622
,,,,,GPON00-D1-BBT-3SGD,,,,,,,,,BBT,,,,BABAT TOMAN SEKAYU,PALEMBANG,1,,103.63721,-2.73916
,,,,,GPON00-D1-BDA-2,,,,,,,,,BDA,MA5600T,HUAWEI,BDA,BANDAR JAYA,LAMPUNG,1,,105.2091,-4.93568
,,,,,GPON00-D1-BDA-2GMP,,,,,,,,,BDA,MA5600T,HUAWEI,BDA,BANDAR JAYA,LAMPUNG,1,,105.2091,-4.93568
,,,,,GPON00-D1-BDA-2SMT,,,,,,,,,BDA,MA5800-X2,HUAWEI,BDA,BANDAR JAYA,LAMPUNG,1,,105.2091,-4.93568
,,,,,GPON00-D1-BDA-3GGPC,,,,,,,,,BDA,C320v2,NOKIA,BDA,BANDAR JAYA,LAMPUNG,1,,105.2091,-4.93568
,,,,,GPON00-D1-BDB-2,,,,,,,,,BDB,MA5800-X2,HUAWEI,BDB,BANDAR BARU,SUMUT,1,,98.54072,3.26445
,,,,,GPON00-D1-BDS-3,,,,,,,,,BDS,C300v2,NOKIA,DGS,BATAM BUKIT DANGAS STPR,RIKEP,1,,103.939,1.12389
,,,,,GPON00-D1-BDT-3,,,,,,,,,BDT,,NOKIA,BDT,BANDAR BUAT,PADANG,1,,100.4217,-0.95333
,,,,,GPON00-D1-BDT-3UND,,,,,,,,,BDT,,NOKIA,BDT,BANDAR BUAT,PADANG,1,,100.4217,-0.95333
,,,,,GPON00-D1-BDU-2BDU,,,,,,,,,BDU,MA5600T,HUAWEI,BDU,BLAMBANGAN UMPU,LAMPUNG,1,,104.5182,-4.50438
,,,,,GPON00-D1-BDU-2BED,,,,,,,,,BDU,,NOKIA,BDU,BLAMBANGAN UMPU,LAMPUNG,1,,104.5182,-4.50438
,,,,,GPON00-D1-BDU-2PKN,,,,,,,,,BDU,,NOKIA,BDU,BLAMBANGAN UMPU,LAMPUNG,1,,104.5182,-4.50438
,,,,,GPON00-D1-BDU-3,,,,,,,,,BDU,C300v2,NOKIA,BDU,BLAMBANGAN UMPU,LAMPUNG,1,,104.5182,-4.50438
,,,,,GPON00-D1-BET-2,,,,,,,,,BET,MA5600T,HUAWEI,BET,BETUNG,PALEMBANG,1,,104.22211,-2.84126
,,,,,GPON00-D1-BET-2LAS,,,,,,,,,BET,,NOKIA,BET,BETUNG,PALEMBANG,1,,104.22211,-2.84126
,,,,,GPON00-D1-BET-2SLN,,,,,,,,,BET,MA5608T,,BET,BETUNG,PALEMBANG,1,,104.22211,-2.84126
,,,,,GPON00-D1-BET-3BYL,,,,,,,,,BET,C320v2,,BET,BETUNG,PALEMBANG,1,,104.22211,-2.84126
,,,,,GPON00-D1-BGA-2,,,,,,,,,BGA,MA5800-X2,HUAWEI,BGA,BINANGA,SUMUT,1,,98.08645,3.07282
,,,,,GPON00-D1-BGO-2,,,,,,,,,BGO,MA5600T,HUAWEI,BGO,BATANG TORU,SUMUT,1,,99.04136,1.48766
,,,,,GPON00-D1-BGS-2,,,,,,,,,BGS,MA5600T,HUAWEI,BGS,BUNGUS,PADANG,1,,100.4131,-0.24333
,,,,,GPON00-D1-BGS-2SGR,,,,,,,,,BGS,MA5800-X2,HUAWEI,BGS,BUNGUS,PADANG,1,,100.4131,-0.24333
,,,,,GPON00-D1-BGU-2,,,,,,,,,BGU,MA5600T,HUAWEI,BGU,BAGAN BATU,RIDAR,1,,100.40757,1.69844
,,,,,GPON00-D1-BGU-3CBA,,,,,,,,,BGU,C320v2,NOKIA,BGU,BAGAN BATU,RIDAR,1,,100.40757,1.69844
,,,,,GPON00-D1-BGU-3PJD,,,,,,,,,BGU,C620,,BGU,BAGAN BATU,RIDAR,1,,100.40757,1.69844
,,,,,GPON00-D1-BGU-3SBM,,,,,,,,,BGU,C620,,BGU,BAGAN BATU,RIDAR,1,,100.40757,1.69844
,,,,,GPON00-D1-BIR-2PDD,,,,,,,,,BIR,MA5800-X2,HUAWEI,BIR,BIREUN,ACEH,1,,96.70417,5.20139
,,,,,GPON00-D1-BIR-3,,,,,,,,,BIR,C300v2,NOKIA,BIR,BIREUN,ACEH,1,,96.70417,5.20139
,,,,,GPON00-D1-BJE-2,,,,,,,,,BJE,MA5800-X17,NOKIA,BJE,BARUSJAHE,SUMUT,1,,98.45367,3.10242
,,,,,GPON00-D1-BJE-2MDM,,,,,,,,,BJE,MA5800-X2,HUAWEI,BJE,BARUSJAHE,SUMUT,1,,98.45367,3.10242
,,,,,GPON00-D1-BJI-2BLC,,,,,,,,,BJI,,,BJI,BINJAI,MEDAN,1,,98.4956,3.61021
,,,,,GPON00-D1-BJI-3,,,,,,,,,BJI,OTHER,,BJI,BINJAI,MEDAN,1,,98.4956,3.61021
,,,,,GPON00-D1-BKJ-2,,,,,,,,,BKJ,MA5600T,HUAWEI,BKJ,BLANGKEJEREN,ACEH,1,,97.34167,3.99477
,,,,,GPON00-D1-BKJ-3KPJ,,,,,,,,,BKJ,OTHER,NOKIA,BKJ,BLANGKEJEREN,ACEH,1,,97.34167,3.99477
,,,,,GPON00-D1-BKM-2,,,,,,,,,BKM,MA5600T,HUAWEI,BKM,BUKIT KEMUNING,LAMPUNG,1,,104.5606,-4.87306
,,,,,GPON00-D1-BKM-2WTB,,,,,,,,,BKM,MA5800-X2,HUAWEI,BKM,BUKIT KEMUNING,LAMPUNG,1,,104.5606,-4.87306
,,,,,GPON00-D1-BKM-3FBL,,,,,,,,,BKM,C320v2,NOKIA,BKM,BUKIT KEMUNING,LAMPUNG,1,,104.5606,-4.87306
,,,,,GPON00-D1-BKM-3SBJ,,,,,,,,,BKM,C320v2,NOKIA,BKM,BUKIT KEMUNING,LAMPUNG,1,,104.5606,-4.87306
,,,,,GPON00-D1-BKN-2,,,,,,,,,BKN,MA5600T,HUAWEI,BKN,BANGKINAN,RIDAR,1,,101.02223,0.33739
,,,,,GPON00-D1-BKN-3FBY,,,,,,,,,BKN,C320v2,NOKIA,BKN,BANGKINAN,RIDAR,1,,101.02223,0.33739
,,,,,GPON00-D1-BKN-3KTM,,,,,,,,,BKN,C320v2,NOKIA,BKN,BANGKINAN,RIDAR,1,,101.02223,0.33739
,,,,,GPON00-D1-BKN-3MTK,,,,,,,,,BKN,OTHER,,BKN,BANGKINAN,RIDAR,1,,101.02223,0.33739
,,,,,GPON00-D1-BKN-3PSK,,,,,,,,,BKN,C320v2,NOKIA,BKN,BANGKINAN,RIDAR,1,,101.02223,0.33739
,,,,,GPON00-D1-BKO-2,,,,,,,,,BKO,MA5600T,HUAWEI,BKO,BANGKO,JAMBI,1,,102.2752,-2.06454
,,,,,GPON00-D1-BKO-3HTU,,,,,,,,,BKO,OTHER,,BKO,BANGKO,JAMBI,1,,102.2752,-2.06454
,,,,,GPON00-D1-BKO-3PMG,,,,,,,,,BKO,C320v2,NOKIA,BKO,BANGKO,JAMBI,1,,102.2752,-2.06454
,,,,,GPON00-D1-BKO-3RPJ,,,,,,,,,BKO,C320v2,NOKIA,BKO,BANGKO,JAMBI,1,,102.2752,-2.06454
,,,,,GPON00-D1-BKO-3SMN,,,,,,,,,BKO,C620,NOKIA,BKO,BANGKO,JAMBI,1,,102.2752,-2.06454
,,,,,GPON00-D1-BKP-2,,,,,,,,,BKP,MA5800-X17,,BKP,BATANG KAPAS,PADANG,1,,100.59997,-1.44275
,,,,,GPON00-D1-BKR-3LKI,,,,,,,,,BKR,C320v2,,BKR,BUKIT RAYA,RIDAR,1,,101.45286,0.43873
,,,,,GPON00-D1-BKR-3SGP,,,,,,,,,BKR,C320v2,NOKIA,BKR,BUKIT RAYA,RIDAR,1,,101.45286,0.43873
,,,,,GPON00-D1-BKS-2,,,,,,,,,BKS,MA5600T,HUAWEI,BKS,BUKIT SIGUNTANG,PALEMBANG,1,,104.72057,-3.00258
,,,,,GPON00-D1-BKS-3TWF,,,,,,,,,BKS,C620,NOKIA,BKS,BUKIT SIGUNTANG,PALEMBANG,1,,104.72057,-3.00258
,,,,,GPON00-D1-BKT-2PLP,,,,,,,,,BKT,,NOKIA,BKT,BUKITTINGGI,PADANG,1,,100.3694,-0.31111
,,,,,GPON00-D1-BKT-3,,,,,,,,,BKT,C300v2,NOKIA,BKT,BUKITTINGGI,PADANG,1,,100.3694,-0.31111
,,,,,GPON00-D1-BLG-2,,,,,,,,,BLG,MA5600T,HUAWEI,BLG,BALIGE,SUMUT,1,,99.06938,2.33181
,,,,,GPON00-D1-BLP-3,,,,,,,,,BLP,C300v2,,BLP,BELAKANG PADANG,RIKEP,1,,103.89025,1.15454
,,,,,GPON00-D1-BLS-2AHJ,,,,,,,,,BLS,MA5800-X2,HUAWEI,BLS,BALAI SELASA,PADANG,1,,100.8386,-1.79833
,,,,,GPON00-D1-BLS-2KMB,,,,,,,,,BLS,MA5800-X17,NOKIA,BLS,BALAI SELASA,PADANG,1,,100.8386,-1.79833
,,,,,GPON00-D1-BLS-3,,,,,,,,,BLS,C300v2,NOKIA,BLS,BALAI SELASA,PADANG,1,,100.8386,-1.79833
,,,,,GPON00-D1-BLT-2CPK,,,,,,,,,BLT,MA5608T,NOKIA,BLT,BELITANG,PALEMBANG,1,,104.64034,-4.10926
,,,,,GPON00-D1-BLT-3,,,,,,,,,BLT,C300v2,NOKIA,BLT,BELITANG,PALEMBANG,1,,104.64034,-4.10926
,,,,,GPON00-D1-BLT-3SMD,,,,,,,,,BLT,C620,NOKIA,BLT,BELITANG,PALEMBANG,1,,104.64034,-4.10926
,,,,,GPON00-D1-BLW-3,,,,,,,,,BLW,C300v2,ZTE,BLW,BELAWAN,MEDAN,1,,98.68611,3.78278
,,,,,GPON00-D1-BNA-2KRY,,,,,,,,,BNA,MA5608T,NOKIA,BNA,BANDA ACEH CENTRUM,ACEH,1,,95.31973,5.5525
,,,,,GPON00-D1-BNC-3,,,,,,,,,BNC,C300v2,NOKIA,BNC,MDF BENGKULU CENTRUM,BENGKULU,1,,102.2656,-3.79667
,,,,,GPON00-D1-BNC-3PDT,,,,,,,,,BNC,,,BNC,MDF BENGKULU CENTRUM,BENGKULU,1,,102.2656,-3.79667
,,,,,GPON00-D1-BNC-3RAQ,,,,,,,,,BNC,C320v2,NOKIA,BNC,MDF BENGKULU CENTRUM,BENGKULU,1,,102.2656,-3.79667
,,,,,GPON00-D1-BNN-2,,,,,,,,,BNN,MA5600T,HUAWEI,BNN,BEUREUNUN,ACEH,1,,95.98714,5.27158
,,,,,GPON00-D1-BNN-2CLE,,,,,,,,,BNN,MA5800-X2,HUAWEI,BNN,BEUREUNUN,ACEH,1,,95.98714,5.27158
,,,,,GPON00-D1-BNN-2LPT,,,,,,,,,BNN,MA5600T,HUAWEI,BNN,BEUREUNUN,ACEH,1,,95.98714,5.27158
,,,,,GPON00-D1-BNN-2LUENG,,,,,,,,,BNN,,NOKIA,BNN,BEUREUNUN,ACEH,1,,95.98714,5.27158
,,,,,GPON00-D1-BPD-2,,,,,,,,,BPD,MA5600T,HUAWEI,BPD,BLANGPIDIE,ACEH,1,,96.83334,3.73417
,,,,,GPON00-D1-BPD-2BBR,,,,,,,,,BPD,,NOKIA,BPD,BLANGPIDIE,ACEH,1,,96.83334,3.73417
,,,,,GPON00-D1-BPD-2KBT,,,,,,,,,BPD,MA5608T,NOKIA,BPD,BLANGPIDIE,ACEH,1,,96.83334,3.73417
,,,,,GPON00-D1-BPD-2LBH,,,,,,,,,BPD,MA5608T,NOKIA,BPD,BLANGPIDIE,ACEH,1,,96.83334,3.73417
,,,,,GPON00-D1-BPD-2MGG,,,,,,,,,BPD,,NOKIA,BPD,BLANGPIDIE,ACEH,1,,96.83334,3.73417
,,,,,GPON00-D1-BSK-2,,,,,,,,,BSK,MA5600T,HUAWEI,BSK,BATU SANGKAR,PADANG,1,,101.50336,-0.95627
,,,,,GPON00-D1-BSO-3,,,,,,,,,BSO,C300v2,,BSO,BASO A,PADANG,1,,100.4669,-0.28444
,,,,,GPON00-D1-BST-2,,,,,,,,,BST,MA5600T,HUAWEI,BST,BRASTAGI,SUMUT,1,,98.50553,3.19899
,,,,,GPON00-D1-BST-2PYG,,,,,,,,,BST,MA5800-X2,HUAWEI,BST,BRASTAGI,SUMUT,1,,98.50553,3.19899
,,,,,GPON00-D1-BTA-2,,,,,,,,,BTA,MA5600T,HUAWEI,BTA,BATURAJA,PALEMBANG,1,,104.17432,-4.08319
,,,,,GPON00-D1-BTA-2BTM,,,,,,,,,BTA,MA5608T,NOKIA,BTA,BATURAJA,PALEMBANG,1,,104.17432,-4.08319
,,,,,GPON00-D1-BTA-3GNM,,,,,,,,,BTA,OTHER,NOKIA,BTA,BATURAJA,PALEMBANG,1,,104.17432,-4.08319
,,,,,GPON00-D1-BTA-3LBR,,,,,,,,,BTA,C620,,BTA,BATURAJA,PALEMBANG,1,,104.17432,-4.08319
,,,,,GPON00-D1-BTA-3PNJ,,,,,,,,,BTA,C320v2,,BTA,BATURAJA,PALEMBANG,1,,104.17432,-4.08319
,,,,,GPON00-D1-BTC-3,,,,,,,,,BTC,OTHER,,BTC,BATAM CENTRE,RIKEP,1,,104.05114,1.11527
,,,,,GPON00-D1-BTC-3ORCD,,,,,,,,,BTC,C320v2,,BTC,BATAM CENTRE,RIKEP,1,,104.05114,1.11527
,,,,,GPON00-D1-BTH-3,,,,,,,,,BTH,C300v2,NOKIA,BTH,BINTUHAN,BENGKULU,1,,102.3539,-3.79306
,,,,,GPON00-D1-BTH-3MRP,,,,,,,,,BTH,C620,NOKIA,BTH,BINTUHAN,BENGKULU,1,,102.3539,-3.79306
,,,,,GPON00-D1-BTH-3PDG,,,,,,,,,BTH,C320v2,NOKIA,BTH,BINTUHAN,BENGKULU,1,,102.3539,-3.79306
,,,,,GPON00-D1-BTH-3TJI,,,,,,,,,BTH,C320v2,NOKIA,BTH,BINTUHAN,BENGKULU,1,,102.3539,-3.79306
,,,,,GPON00-D1-BUM-3,,,,,,,,,BUM,OTHER,,BUM,BATU AMPAR,RIKEP,1,,104.00867,1.1714
,,,,,GPON00-D1-BYU-2,,,,,,,,,BYU,MA5680T,NOKIA,BYU,BELINYU,PANGKAL PINANG,1,,105.7685,-1.63606
,,,,,GPON00-D1-BYU-3SLP,,,,,,,,,BYU,OTHER,,BYU,BELINYU,PANGKAL PINANG,1,,105.7685,-1.63606
,,,,,GPON00-D1-CAG-2,,,,,,,,,CAG,MA5600T,HUAWEI,CAG,MDF CALANG,ACEH,1,,95.59055,4.63056
,,,,,GPON00-D1-CAG-2PNG,,,,,,,,,CAG,,NOKIA,CAG,MDF CALANG,ACEH,1,,95.59055,4.63056
,,,,,GPON00-D1-CAG-2TNM,,,,,,,,,CAG,MA5608T,NOKIA,CAG,MDF CALANG,ACEH,1,,95.59055,4.63056
,,,,,GPON00-D1-CRP-2,,,,,,,,,CRP,MA5600T,HUAWEI,CRP,MDF CURUP,BENGKULU,1,,102.5228,-3.46861
,,,,,GPON00-D1-CRP-3BSK,,,,,,,,,CRP,,,CRP,MDF CURUP,BENGKULU,1,,102.5228,-3.46861
,,,,,GPON00-D1-CRP-3RAC,,,,,,,,,CRP,C320v2,NOKIA,CRP,MDF CURUP,BENGKULU,1,,102.5228,-3.46861
,,,,,GPON00-D1-CRP-3UJM,,,,,,,,,CRP,C320v2,NOKIA,CRP,MDF CURUP,BENGKULU,1,,102.5228,-3.46861
,,,,,GPON00-D1-CTD-3,,,,,,,,,CTD,OTHER,,CTD,CINTA DAMAI,MEDAN,1,,98.62658,3.59223
,,,,,GPON00-D1-DAR-3,,,,,,,,,DAR,OTHER,,DAR,MDF DARUSSALAM,ACEH,1,,95.3365,5.56958
,,,,,GPON00-D1-DBS-3,,,,,,,,,DBS,C300v2,,DBS,DABO SINGKEP,RIKEP,1,,104.5544,-0.48611
,,,,,GPON00-D1-DBS-3JGO,,,,,,,,,DBS,C620,,DBS,DABO SINGKEP,RIKEP,1,,104.5544,-0.48611
,,,,,GPON00-D1-DBS-3LGA,,,,,,,,,DBS,C320v2,NOKIA,DBS,DABO SINGKEP,RIKEP,1,,104.5544,-0.48611
,,,,,GPON00-D1-DBS-3PCR,,,,,,,,,DBS,,NOKIA,DBS,DABO SINGKEP,RIKEP,1,,104.5544,-0.48611
,,,,,GPON00-D1-DBS-3SLY,,,,,,,,,DBS,OTHER,,DBS,DABO SINGKEP,RIKEP,1,,104.5544,-0.48611
,,,,,GPON00-D1-DBS-3SNY,,,,,,,,,DBS,OTHER,NOKIA,DBS,DABO SINGKEP,RIKEP,1,,104.5544,-0.48611
,,,,,GPON00-D1-DLS-2,,,,,,,,,DLS,MA5600T,HUAWEI,DLS,DOLOK SANGGUL,SUMUT,1,,98.74722,2.25003
,,,,,GPON00-D1-DLS-2PKT,,,,,,,,,DLS,,NOKIA,DLS,DOLOK SANGGUL,SUMUT,1,,98.74722,2.25003
,,,,,GPON00-D1-DLT-2FG,,,,,,,,,DLT,MA5608T,ZTE,DLT,DELITUA,MEDAN,1,,98.67917,3.50278
,,,,,GPON00-D1-DLT-3,,,,,,,,,DLT,C300v2,ZTE,DLT,DELITUA,MEDAN,1,,98.67917,3.50278
,,,,,GPON00-D1-DRI-3,,,,,,,,,DRI,C300v2,NOKIA,DRI,DURI,RIDAR,1,,101.19208,1.26754
,,,,,GPON00-D1-DRI-3CDR,,,,,,,,,DRI,C300v2,,DRI,DURI,RIDAR,1,,101.19208,1.26754
,,,,,GPON00-D1-DRI-3SPP,,,,,,,,,DRI,C620,NOKIA,DRI,DURI,RIDAR,1,,101.19208,1.26754
,,,,,GPON00-D1-DUM-2BBS,,,,,,,,,DUM,MA5608T,NOKIA,DUM,DUMAI,RIDAR,1,,101.44574,1.67862
,,,,,GPON00-D1-DUM-2RBS,,,,,,,,,DUM,MA5608T,NOKIA,DUM,DUMAI,RIDAR,1,,101.44574,1.67862
,,,,,GPON00-D1-DUM-3,,,,,,,,,DUM,C300v2,NOKIA,DUM,DUMAI,RIDAR,1,,101.44574,1.67862
,,,,,GPON00-D1-DUM-3BJ12,,,,,,,,,DUM,C620,NOKIA,DUM,DUMAI,RIDAR,1,,101.44574,1.67862
,,,,,GPON00-D1-DUM-3LBG,,,,,,,,,DUM,C620,NOKIA,DUM,DUMAI,RIDAR,1,,101.44574,1.67862
,,,,,GPON00-D1-DUM-3PLT,,,,,,,,,DUM,C620,NOKIA,DUM,DUMAI,RIDAR,1,,101.44574,1.67862
,,,,,GPON00-D1-DUM-3UJT,,,,,,,,,DUM,C320v2,NOKIA,DUM,DUMAI,RIDAR,1,,101.44574,1.67862
,,,,,GPON00-D1-GDT-2KDD,,,,,,,,,GDT,MA5800-X2,HUAWEI,GDT,GEDONG TATAAN,LAMPUNG,1,,105.0975,-5.38056
,,,,,GPON00-D1-GDT-3,,,,,,,,,GDT,C300v2,NOKIA,GDT,GEDONG TATAAN,LAMPUNG,1,,105.0975,-5.38056
,,,,,GPON00-D1-GEU-2,,,,,,,,,GEU,MA5600T,HUAWEI,GEU,GEUDONG,ACEH,1,,97.2,5.11889
,,,,,GPON00-D1-GLG-2,,,,,,,,,GLG,MA5600T,HUAWEI,GLG,GALANG,MEDAN,1,,98.89111,3.43667
,,,,,GPON00-D1-GLG-2KTR,,,,,,,,,GLG,,,GLG,GALANG,MEDAN,1,,98.89111,3.43667
,,,,,GPON00-D1-GMN-2,,,,,,,,,GMN,,,GMN,GUNUNG MEDAN,PADANG,1,,101.55039,-1.09742
,,,,,GPON00-D1-GNT-3,,,,,,,,,GNT,C300v2,NOKIA,GNT,GUNUNG TUA,SUMUT,1,,99.62473,1.50833
,,,,,GPON00-D1-GST-2,,,,,,,,,GST,MA5600T,HUAWEI,GST,GUNUNG SITOLI,SUMUT,1,,97.61541,1.28907
,,,,,GPON00-D1-GST-2GDO,,,,,,,,,GST,MA5800-X2,HUAWEI,GST,GUNUNG SITOLI,SUMUT,1,,97.61541,1.28907
,,,,,GPON00-D1-GST-2LHW,,,,,,,,,GST,MA5800-X2,HUAWEI,GST,GUNUNG SITOLI,SUMUT,1,,97.61541,1.28907
,,,,,GPON00-D1-GST-2MDR,,,,,,,,,GST,MA5608T,,GST,GUNUNG SITOLI,SUMUT,1,,97.61541,1.28907
,,,,,GPON00-D1-GST-2MZY,,,,,,,,,GST,MA5608T,NOKIA,GST,GUNUNG SITOLI,SUMUT,1,,97.61541,1.28907
,,,,,GPON00-D1-HRU-2,,,,,,,,,HRU,MA5600T,HUAWEI,HRU,HARAU,PADANG,1,,100.7175,-0.27389
,,,,,GPON00-D1-IDA-2,,,,,,,,,IDA,MA5600T,HUAWEI,IDA,INDRAPURA,SUMUT,1,,99.40621,3.25987
,,,,,GPON00-D1-IDI-2IMK,,,,,,,,,IDI,,NOKIA,IDI,IDI,ACEH,1,,97.77278,4.94917
,,,,,GPON00-D1-IDI-2KBJ,,,,,,,,,IDI,MA5608T,NOKIA,IDI,IDI,ACEH,1,,97.77278,4.94917
,,,,,GPON00-D1-IDI-3,,,,,,,,,IDI,C300v2,NOKIA,IDI,IDI,ACEH,1,,97.77278,4.94917
,,,,,GPON00-D1-IDL-3,,,,,,,,,IDL,C300v2,NOKIA,IDL,INDRALAYA,PALEMBANG,1,,104.67609,-3.19596
,,,,,GPON00-D1-IDL-3GLM,,,,,,,,,IDL,OTHER,,IDL,INDRALAYA,PALEMBANG,1,,104.67609,-3.19596
,,,,,GPON00-D1-IPU-3,,,,,,,,,IPU,C300v2,,IPU,IPUH,BENGKULU,1,,102.4914,-3.00722
,,,,,GPON00-D1-IPU-3ARM,,,,,,,,,IPU,OTHER,NOKIA,IPU,IPUH,BENGKULU,1,,102.4914,-3.00722
,,,,,GPON00-D1-JBS-3,,,,,,,,,JBS,C300v2,,JBS,JEBUS,PANGKAL PINANG,1,,105.5087,-1.66619
,,,,,GPON00-D1-JHO-3,,,,,,,,,JHO,C300v2,NOKIA,JHO,JHANTO,ACEH,1,,95.60902,5.96362
,,,,,GPON00-D1-JMB-3,,,,,,,,,JMB,OTHER,,JMB,JAMBI,JAMBI,1,,103.6176,-1.59317
,,,,,GPON00-D1-JMI-3,,,,,,,,,JMI,OTHER,,JMI,MDF TELANAI PURA,JAMBI,1,,103.58953,-1.60657
,,,,,GPON00-D1-JRM-2,,,,,,,,,JRM,MA5600T,HUAWEI,JRM,JEURAM,ACEH,1,,102.3386,-1.47083
,,,,,GPON00-D1-JRM-2ABL,,,,,,,,,JRM,MA5608T,NOKIA,JRM,JEURAM,ACEH,1,,102.3386,-1.47083
,,,,,GPON00-D1-JRM-2LMI,,,,,,,,,JRM,,,JRM,JEURAM,ACEH,1,,102.3386,-1.47083
,,,,,GPON00-D1-JRM-2SNG,,,,,,,,,JRM,MA5608T,NOKIA,JRM,JEURAM,ACEH,1,,102.3386,-1.47083
,,,,,GPON00-D1-JRM-2SPT,,,,,,,,,JRM,,,JRM,JEURAM,ACEH,1,,102.3386,-1.47083
,,,,,GPON00-D1-KAG-2,,,,,,,,,KAG,MA5600T,HUAWEI,KAG,KAYU AGUNG,PALEMBANG,1,,104.83064,-3.3926
,,,,,GPON00-D1-KAG-3PDM,,,,,,,,,KAG,C620,NOKIA,KAG,KAYU AGUNG,PALEMBANG,1,,104.83064,-3.3926
,,,,,GPON00-D1-KAG-3PPG,,,,,,,,,KAG,C620,NOKIA,KAG,KAYU AGUNG,PALEMBANG,1,,104.83064,-3.3926
,,,,,GPON00-D1-KAG-3SPD,,,,,,,,,KAG,C320v2,NOKIA,KAG,KAYU AGUNG,PALEMBANG,1,,104.83064,-3.3926
,,,,,GPON00-D1-KBI-2SEM,,,,,,,,,KBI,,NOKIA,KBI,KOTABUMI,LAMPUNG,1,,104.8872,-4.83028
,,,,,GPON00-D1-KBI-3,,,,,,,,,KBI,C300v2,NOKIA,KBI,KOTABUMI,LAMPUNG,1,,104.8872,-4.83028
,,,,,GPON00-D1-KBJ-2,,,,,,,,,KBJ,MA5600T,HUAWEI,KBJ,KABANJAHE,SUMUT,1,,98.49674,3.10229
,,,,,GPON00-D1-KBJ-2MRK,,,,,,,,,KBJ,MA5800-X2,HUAWEI,KBJ,KABANJAHE,SUMUT,1,,98.49674,3.10229
,,,,,GPON00-D1-KBO-3,,,,,,,,,KBO,C300v2,NOKIA,KBO,KOBA,PANGKAL PINANG,1,,106.4174,-2.48428
,,,,,GPON00-D1-KBO-3LBK,,,,,,,,,KBO,C620,,KBO,KOBA,PANGKAL PINANG,1,,106.4174,-2.48428
,,,,,GPON00-D1-KBO-3PYK,,,,,,,,,KBO,C620,NOKIA,KBO,KOBA,PANGKAL PINANG,1,,106.4174,-2.48428
,,,,,GPON00-D1-KBO-3SDO,,,,,,,,,KBO,OTHER,,KBO,KOBA,PANGKAL PINANG,1,,106.4174,-2.48428
,,,,,GPON00-D1-KBO-3TRB,,,,,,,,,KBO,C620,NOKIA,KBO,KOBA,PANGKAL PINANG,1,,106.4174,-2.48428
,,,,,GPON00-D1-KDT-2SEB,,,,,,,,,KDT,MA5800-X2,HUAWEI,KDT,KEDATON,LAMPUNG,1,,105.2622,-5.37859
,,,,,GPON00-D1-KDT-3,,,,,,,,,KDT,OTHER,,KDT,KEDATON,LAMPUNG,1,,105.2622,-5.37859
,,,,,GPON00-D1-KDT-3ITERA,,,,,,,,,KDT,C300v2,NOKIA,KDT,KEDATON,LAMPUNG,1,,105.2622,-5.37859
,,,,,GPON00-D1-KFR-2,,,,,,,,,KFR,MA5600T,HUAWEI,KFR,KOTA FAJAR,ACEH,1,,97.33344,3.08667
,,,,,GPON00-D1-KGG-2,,,,,,,,,KGG,MA5800-X2,HUAWEI,KGG,KOTA AGUNG,PADANG,1,,101.6858,-0.01528
,,,,,GPON00-D1-KGG-3,,,,,,,,,KGG,C600,,KGG,KOTA AGUNG,PADANG,1,,101.6858,-0.01528
,,,,,GPON00-D1-KGH-2*,,,,,,,,,KGH,,NOKIA,KGH,MDF KRUENG GEUKEUH,ACEH,1,,97.02639,5.23611
,,,,,GPON00-D1-KGH-2KRM,,,,,,,,,KGH,MA5800-X2,HUAWEI,KGH,MDF KRUENG GEUKEUH,ACEH,1,,97.02639,5.23611
,,,,,GPON00-D1-KGH-2NSM,,,,,,,,,KGH,,NOKIA,KGH,MDF KRUENG GEUKEUH,ACEH,1,,97.02639,5.23611
,,,,,GPON00-D1-KGH-3,,,,,,,,,KGH,C300v2,NOKIA,KGH,MDF KRUENG GEUKEUH,ACEH,1,,97.02639,5.23611
,,,,,GPON00-D1-KIB-3,,,,,,,,,KIB,OTHER,,KIB,KAWASAN INDUSTRI MABAR,MEDAN,1,,98.66532,3.66654
,,,,,GPON00-D1-KIJ-2,,,,,,,,,KIJ,MA5600T,HUAWEI,KIJ,KIJANG,RIKEP,1,,104.60042,0.85394
,,,,,GPON00-D1-KIS-2,,,,,,,,,KIS,MA5600T,HUAWEI,KIS,KISARAN,SUMUT,1,,99.62278,2.98646
,,,,,GPON00-D1-KIS-2ABT,,,,,,,,,KIS,,,KIS,KISARAN,SUMUT,1,,99.62278,2.98646
,,,,,GPON00-D1-KIS-2BPL,,,,,,,,,KIS,MA5800-X2,HUAWEI,KIS,KISARAN,SUMUT,1,,99.62278,2.98646
,,,,,GPON00-D1-KIS-2BPM,,,,,,,,,KIS,MA5800-X2,HUAWEI,KIS,KISARAN,SUMUT,1,,99.62278,2.98646
,,,,,GPON00-D1-KIS-3SSL,,,,,,,,,KIS,C620,,KIS,KISARAN,SUMUT,1,,99.62278,2.98646
,,,,,GPON00-D1-KJI-2UIN,,,,,,,,,KJI,MA5608T,NOKIA,KJI,KURANJI,PADANG,1,,100.1317,-0.62528
,,,,,GPON00-D1-KJI-3,,,,,,,,,KJI,C300v2,NOKIA,KJI,KURANJI,PADANG,1,,100.1317,-0.62528
,,,,,GPON00-D1-KLA-2CAN,,,,,,,,,KLA,,NOKIA,KLA,KALIANDA,LAMPUNG,1,,105.5897,-5.7325
,,,,,GPON00-D1-KLA-2KAT,,,,,,,,,KLA,MA5800-X2,HUAWEI,KLA,KALIANDA,LAMPUNG,1,,105.5897,-5.7325
,,,,,GPON00-D1-KLA-3,,,,,,,,,KLA,C300v2,NOKIA,KLA,KALIANDA,LAMPUNG,1,,105.5897,-5.7325
,,,,,GPON00-D1-KLA-3SID,,,,,,,,,KLA,OTHER,,KLA,KALIANDA,LAMPUNG,1,,105.5897,-5.7325
,,,,,GPON00-D1-KLE-3,,,,,,,,,KLE,C320v2,,KLE,KUALA ENOK,RIDAR,1,,103.4017,-0.51361
,,,,,GPON00-D1-KLR-2,,,,,,,,,KLR,MA5600T,HUAWEI,KLR,KALIREJO,LAMPUNG,1,,104.9646,-5.22496
,,,,,GPON00-D1-KMN-2,,,,,,,,,KMN,MA5600T,HUAWEI,KMN,KAMANG,PADANG,1,,100.4158,-0.22306
,,,,,GPON00-D1-KMS-3,,,,,,,,,KMS,C300v2,NOKIA,KMS,KILO METER SEPULUH,RIKEP,1,,104.515,0.91659
,,,,,GPON00-D1-KMS-3BAI,,,,,,,,,KMS,C620,NOKIA,KMS,KILO METER SEPULUH,RIKEP,1,,104.515,0.91659
,,,,,GPON00-D1-KMS-3CBN,,,,,,,,,KMS,C620,,KMS,KILO METER SEPULUH,RIKEP,1,,104.515,0.91659
,,,,,GPON00-D1-KMS-3KWL,,,,,,,,,KMS,C320v2,NOKIA,KMS,KILO METER SEPULUH,RIKEP,1,,104.515,0.91659
,,,,,GPON00-D1-KNL-2,,,,,,,,,KNL,MA5800-X17,NOKIA,KNL,KINALI,PADANG,1,,100.04793,-0.07935
,,,,,GPON00-D1-KNL-2PDS,,,,,,,,,KNL,MA5800-X2,HUAWEI,KNL,KINALI,PADANG,1,,100.04793,-0.07935
,,,,,GPON00-D1-KOA-3,,,,,,,,,KOA,OTHER,,KOA,KOTA BARU,JAMBI,1,,103.6064,-1.63136
,,,,,GPON00-D1-KON-2,,,,,,,,,KON,MA5608T,NOKIA,KON,KOTANOPAN,SUMUT,1,,99.71444,0.66833
,,,,,GPON00-D1-KOT-3,,,,,,,,,KOT,C300v2,,KOT,KOTA AGUNG,LAMPUNG,1,,104.6347,-5.50333
,,,,,GPON00-D1-KOT-3WNB,,,,,,,,,KOT,C320v2,,KOT,KOTA AGUNG,LAMPUNG,1,,104.6347,-5.50333
,,,,,GPON00-D1-KOU-2,,,,,,,,,KOU,MA5800-X17,NOKIA,KOU,KOTO BARU,PADANG,1,,101.7171,-1.11604
,,,,,GPON00-D1-KPH-2,,,,,,,,,KPH,MA5600T,HUAWEI,KPH,MDF KEPAHIANG,BENGKULU,1,,102.5783,-3.63528
,,,,,GPON00-D1-KPI-2,,,,,,,,,KPI,MA5600T,HUAWEI,KPI,KOTA PINANG,SUMUT,1,,100.0925,1.89139
,,,,,GPON00-D1-KPI-2*,,,,,,,,,KPI,,ZTE,KPI,KOTA PINANG,SUMUT,1,,100.0925,1.89139
,,,,,GPON00-D1-KPI-2FAG,,,,,,,,,KPI,MA5608T,ZTE,KPI,KOTA PINANG,SUMUT,1,,100.0925,1.89139
,,,,,GPON00-D1-KPI-2HTG,,,,,,,,,KPI,,ZTE,KPI,KOTA PINANG,SUMUT,1,,100.0925,1.89139
,,,,,GPON00-D1-KPI-2LGP,,,,,,,,,KPI,MA5800-X2,HUAWEI,KPI,KOTA PINANG,SUMUT,1,,100.0925,1.89139
,,,,,GPON00-D1-KRU-3,,,,,,,,,KRU,C300v2,NOKIA,KRU,KRUI,LAMPUNG,1,,104.6439,-5.50333
,,,,,GPON00-D1-KRU-3TJS,,,,,,,,,KRU,C320v2,NOKIA,KRU,KRUI,LAMPUNG,1,,104.6439,-5.50333
,,,,,GPON00-D1-KSG-2SLT,,,,,,,,,KSG,MA5608T,ZTE,KSG,KUALA SIMPANG,ACEH,1,,98.06,4.28722
,,,,,GPON00-D1-KSG-2SPO,,,,,,,,,KSG,MA5608T,ZTE,KSG,KUALA SIMPANG,ACEH,1,,98.06,4.28722
,,,,,GPON00-D1-KSG-2SWY,,,,,,,,,KSG,,ZTE,KSG,KUALA SIMPANG,ACEH,1,,98.06,4.28722
,,,,,GPON00-D1-KSG-2TLC,,,,,,,,,KSG,MA5800-X2,HUAWEI,KSG,KUALA SIMPANG,ACEH,1,,98.06,4.28722
,,,,,GPON00-D1-KSG-2TMH,,,,,,,,,KSG,MA5800-X2,HUAWEI,KSG,KUALA SIMPANG,ACEH,1,,98.06,4.28722
,,,,,GPON00-D1-KSG-3,,,,,,,,,KSG,C300v2,ZTE,KSG,KUALA SIMPANG,ACEH,1,,98.06,4.28722
,,,,,GPON00-D1-KTJ-2,,,,,,,,,KTJ,MA5800-X2,HUAWEI,KTJ,KUALA TANJUNG,SUMUT,1,,99.44194,3.41194
,,,,,GPON00-D1-KTL-2BTR,,,,,,,,,KTL,,,KTL,KUALA TUNGKAL,JAMBI,1,,103.4659,-0.81298
,,,,,GPON00-D1-KTL-3,,,,,,,,,KTL,C300v2,NOKIA,KTL,KUALA TUNGKAL,JAMBI,1,,103.4659,-0.81298
,,,,,GPON00-D1-KTN-2KTB,,,,,,,,,KTN,,,KTN,KUTACANE,ACEH,1,,97.81667,3.5
,,,,,GPON00-D1-KTN-2LWD,,,,,,,,,KTN,MA5608T,ZTE,KTN,KUTACANE,ACEH,1,,97.81667,3.5
,,,,,GPON00-D1-KTN-2SMD,,,,,,,,,KTN,MA5800-X2,HUAWEI,KTN,KUTACANE,ACEH,1,,97.81667,3.5
,,,,,GPON00-D1-KTN-3,,,,,,,,,KTN,C300v2,ZTE,KTN,KUTACANE,ACEH,1,,97.81667,3.5
,,,,,GPON00-D1-KTU-3,,,,,,,,,KTU,C300v2,NOKIA,KTU,KENTEN UJUNG,PALEMBANG,1,,104.76915,-2.93456
,,,,,GPON00-D1-KUL-2,,,,,,,,,KUL,MA5600T,HUAWEI,KUL,KUALA,MEDAN,1,,98.39639,3.52889
,,,,,GPON00-D1-KUL-2BKL,,,,,,,,,KUL,,ZTE,KUL,KUALA,MEDAN,1,,98.39639,3.52889
,,,,,GPON00-D1-KUL-2FK,,,,,,,,,KUL,MA5608T,ZTE,KUL,KUALA,MEDAN,1,,98.39639,3.52889
,,,,,GPON00-D1-KUL-2FM,,,,,,,,,KUL,MA5608T,ZTE,KUL,KUALA,MEDAN,1,,98.39639,3.52889
,,,,,GPON00-D1-KYT-2,,,,,,,,,KYT,MA5800-X17,NOKIA,KYT,KAYU TANAM,PADANG,1,,100.3172,-0.54361
,,,,,GPON00-D1-LAM-2,,,,,,,,,LAM,MA5600T,HUAWEI,LAM,LABUAN MARINGGAI,LAMPUNG,1,,105.7653,-5.3019
,,,,,GPON00-D1-LAM-2SDR,,,,,,,,,LAM,MA5800-X2,HUAWEI,LAM,LABUAN MARINGGAI,LAMPUNG,1,,105.7653,-5.3019
,,,,,GPON00-D1-LAM-3PGR,,,,,,,,,LAM,C320v2,NOKIA,LAM,LABUAN MARINGGAI,LAMPUNG,1,,105.7653,-5.3019
,,,,,GPON00-D1-LAM-3SMB,,,,,,,,,LAM,C320v2,NOKIA,LAM,LABUAN MARINGGAI,LAMPUNG,1,,105.7653,-5.3019
,,,,,GPON00-D1-LBA-2,,,,,,,,,LBA,MA5600T,HUAWEI,LBA,LUBUK ALUNG,PADANG,1,,100.2848826,-0.681152
,,,,,GPON00-D1-LBB-2BWN,,,,,,,,,LBB,MA5800-X2,HUAWEI,LBB,LUBUK BASUNG,PADANG,1,,100.0183,-0.31833
,,,,,GPON00-D1-LBB-3,,,,,,,,,LBB,C300v2,NOKIA,LBB,LUBUK BASUNG,PADANG,1,,100.0183,-0.31833
,,,,,GPON00-D1-LBJ-3,,,,,,,,,LBJ,OTHER,,LBJ,LUBUK BAJA,RIKEP,1,,104.0186,1.13517
,,,,,GPON00-D1-LBK-2PTL,,,,,,,,,LBK,,NOKIA,LBK,LABUHAN RUKU,SUMUT,1,,99.21111,2.56389
,,,,,GPON00-D1-LBK-3,,,,,,,,,LBK,C300v2,ZTE,LBK,LABUHAN RUKU,SUMUT,1,,99.21111,2.56389
,,,,,GPON00-D1-LBP-2PLB,,,,,,,,,LBP,,ZTE,LBP,LUBUK PAKAM,MEDAN,1,,98.87639,3.56167
,,,,,GPON00-D1-LBP-2RGM,,,,,,,,,LBP,,ZTE,LBP,LUBUK PAKAM,MEDAN,1,,98.87639,3.56167
,,,,,GPON00-D1-LBP-3,,,,,,,,,LBP,C300v2,ZTE,LBP,LUBUK PAKAM,MEDAN,1,,98.87639,3.56167
,,,,,GPON00-D1-LBR-2,,,,,,,,,LBR,MA5600T,HUAWEI,LBR,LAMBARO,ACEH,1,,95.35584,5.51139
,,,,,GPON00-D1-LBR-2BBG,,,,,,,,,LBR,MA5800-X2,HUAWEI,LBR,LAMBARO,ACEH,1,,95.35584,5.51139
,,,,,GPON00-D1-LBR-2CML,,,,,,,,,LBR,,NOKIA,LBR,LAMBARO,ACEH,1,,95.35584,5.51139
,,,,,GPON00-D1-LBR-2IDP,,,,,,,,,LBR,,NOKIA,LBR,LAMBARO,ACEH,1,,95.35584,5.51139
,,,,,GPON00-D1-LBR-2LKY,,,,,,,,,LBR,MA5800-X2,HUAWEI,LBR,LAMBARO,ACEH,1,,95.35584,5.51139
,,,,,GPON00-D1-LBR-2MTS,,,,,,,,,LBR,MA5800-X2,HUAWEI,LBR,LAMBARO,ACEH,1,,95.35584,5.51139
,,,,,GPON00-D1-LBR-2SHN,,,,,,,,,LBR,MA5800-X2,HUAWEI,LBR,LAMBARO,ACEH,1,,95.35584,5.51139
,,,,,GPON00-D1-LBS-2,,,,,,,,,LBS,MA5600T,HUAWEI,LBS,LUBUK SIKAPING,PADANG,1,,100.1744,0.28667
,,,,,GPON00-D1-LBS-2BJL,,,,,,,,,LBS,MA5800-X2,HUAWEI,LBS,LUBUK SIKAPING,PADANG,1,,100.1744,0.28667
,,,,,GPON00-D1-LBY-2BIM,,,,,,,,,LBY,MA5800-X2,HUAWEI,LBY,LUBUK BUAYA,PADANG,1,,100.3172,-0.81167
,,,,,GPON00-D1-LBY-3,,,,,,,,,LBY,C300v2,NOKIA,LBY,LUBUK BUAYA,PADANG,1,,100.3172,-0.81167
,,,,,GPON00-D1-LGS-2ALD,,,,,,,,,LGS,MA5800-X2,HUAWEI,LGS,LANGSA,ACEH,1,,97.96639,4.47306
,,,,,GPON00-D1-LGS-3,,,,,,,,,LGS,C300v2,ZTE,LGS,LANGSA,ACEH,1,,97.96639,4.47306
,,,,,GPON00-D1-LHT-2,,,,,,,,,LHT,MA5600T,HUAWEI,LHT,LAHAT,PALEMBANG,1,,103.53315,-3.79485
,,,,,GPON00-D1-LHT-3KKM,,,,,,,,,LHT,C320v2,NOKIA,LHT,LAHAT,PALEMBANG,1,,103.53315,-3.79485
,,,,,GPON00-D1-LHT-3ULP,,,,,,,,,LHT,C620,NOKIA,LHT,LAHAT,PALEMBANG,1,,103.53315,-3.79485
,,,,,GPON00-D1-LIM-2,,,,,,,,,LIM,MA5600T,HUAWEI,LIM,LIMAU MANIS,PADANG,1,,100.4633,-0.92056
,,,,,GPON00-D1-LIN-2,,,,,,,,,LIN,MA5600T,HUAWEI,LIN,LINTAU,PADANG,1,,100.7525,-0.3075
,,,,,GPON00-D1-LIW-3,,,,,,,,,LIW,C300v2,,LIW,LIWA,LAMPUNG,1,,104.0747,-5.02056
,,,,,GPON00-D1-LKP-3,,,,,,,,,LKP,C300v2,NOKIA,LKP,LANGKAPURA,LAMPUNG,1,,105.2122,-5.39667
,,,,,GPON00-D1-LLG-3,,,,,,,,,LLG,C300v2,NOKIA,LLG,LUBUKLINGGAU,PALEMBANG,1,,102.86192,-3.29568
,,,,,GPON00-D1-LNO-2,,,,,,,,,LNO,MA5600T,HUAWEI,LNO,MDF LAMNO,ACEH,1,,95.3634481,5.0897212
,,,,,GPON00-D1-LOA-2,,,,,,,,,LOA,MA5600T,HUAWEI,LOA,LHOKNGA,ACEH,1,,95.23,5.47
,,,,,GPON00-D1-LSK-2,,,,,,,,,LSK,MA5600T,HUAWEI,LSK,LHOKSUKON,ACEH,1,,97.32083,5.04667
,,,,,GPON00-D1-LSK-2BKT,,,,,,,,,LSK,MA5800-X2,HUAWEI,LSK,LHOKSUKON,ACEH,1,,97.32083,5.04667
,,,,,GPON00-D1-LSK-2CGK,,,,,,,,,LSK,MA5800-X2,HUAWEI,LSK,LHOKSUKON,ACEH,1,,97.32083,5.04667
,,,,,GPON00-D1-LSM-2BBA,,,,,,,,,LSM,,NOKIA,LSM,LHOKSEUMAWE,ACEH,1,,97.14528,5.18222
,,,,,GPON00-D1-LSM-3,,,,,,,,,LSM,OTHER,,LSM,LHOKSEUMAWE,ACEH,1,,97.14528,5.18222
,,,,,GPON00-D1-LTM-2BDR,,,,,,,,,LTM,,,LTM,LAMTEUMEN,ACEH,1,,95.29335,5.5281
,,,,,GPON00-D1-LUG-2,,,,,,,,,LUG,MA5600T,HUAWEI,LUG,LUBUK GADANG,PADANG,1,,101.2431,-1.55167
,,,,,GPON00-D1-LUG-2BDJ,,,,,,,,,LUG,,,LUG,LUBUK GADANG,PADANG,1,,101.2431,-1.55167
,,,,,GPON00-D1-LUG-2SNR,,,,,,,,,LUG,MA5800-X2,HUAWEI,LUG,LUBUK GADANG,PADANG,1,,101.2431,-1.55167
,,,,,GPON00-D1-MAB-3,,,,,,,,,MAB,C300v2,NOKIA,MAB,MUARA BUNGO,JAMBI,1,,102.1174,-1.49772
,,,,,GPON00-D1-MAB-3KKG,,,,,,,,,MAB,C320v2,NOKIA,MAB,MUARA BUNGO,JAMBI,1,,102.1174,-1.49772
,,,,,GPON00-D1-MAB-3RKL,,,,,,,,,MAB,OTHER,,MAB,MUARA BUNGO,JAMBI,1,,102.1174,-1.49772
,,,,,GPON00-D1-MBN-2,,,,,,,,,MBN,MA5600T,HUAWEI,MBN,MUARA BULIAN,JAMBI,1,,103.2627,-1.71591
,,,,,GPON00-D1-MBN-2MTB,,,,,,,,,MBN,MA5608T,,MBN,MUARA BULIAN,JAMBI,1,,103.2627,-1.71591
,,,,,GPON00-D1-MBN-3LCK,,,,,,,,,MBN,,,MBN,MUARA BULIAN,JAMBI,1,,103.2627,-1.71591
,,,,,GPON00-D1-MBN-3RHN,,,,,,,,,MBN,,,MBN,MUARA BULIAN,JAMBI,1,,103.2627,-1.71591
,,,,,GPON00-D1-MBN-3SBH,,,,,,,,,MBN,C320v2,,MBN,MUARA BULIAN,JAMBI,1,,103.2627,-1.71591
,,,,,GPON00-D1-MBN-3SPB,,,,,,,,,MBN,,,MBN,MUARA BULIAN,JAMBI,1,,103.2627,-1.71591
,,,,,GPON00-D1-MBO-2ALP,,,,,,,,,MBO,MA5800-X2,HUAWEI,MBO,MEULABOH,ACEH,1,,96.12666,4.13611
,,,,,GPON00-D1-MBO-2KWY,,,,,,,,,MBO,MA5800-X2,HUAWEI,MBO,MEULABOH,ACEH,1,,96.12666,4.13611
,,,,,GPON00-D1-MBO-2LGK,,,,,,,,,MBO,MA5800-X2,HUAWEI,MBO,MEULABOH,ACEH,1,,96.12666,4.13611
,,,,,GPON00-D1-MBO-2MRB,,,,,,,,,MBO,,NOKIA,MBO,MEULABOH,ACEH,1,,96.12666,4.13611
,,,,,GPON00-D1-MBO-2SMT,,,,,,,,,MBO,MA5800-X2,HUAWEI,MBO,MEULABOH,ACEH,1,,96.12666,4.13611
,,,,,GPON00-D1-MBO-2WYL,,,,,,,,,MBO,MA5608T,NOKIA,MBO,MEULABOH,ACEH,1,,96.12666,4.13611
,,,,,GPON00-D1-MBO-3,,,,,,,,,MBO,C300v2,NOKIA,MBO,MEULABOH,ACEH,1,,96.12666,4.13611
,,,,,GPON00-D1-MDC-3,,,,,,,,,MDC,OTHER,,MDC,MEDAN CENTRUM,MEDAN,1,,98.70161,3.56844
,,,,,GPON00-D1-MDC-3MCP,,,,,,,,,MDC,C300v2,,MDC,MEDAN CENTRUM,MEDAN,1,,98.70161,3.56844
,,,,,GPON00-D1-MEM-3,,,,,,,,,MEM,C300v2,NOKIA,MEM,MUARA ENIM,PALEMBANG,1,,103.76781,-3.65588
,,,,,GPON00-D1-MET-2MKB,,,,,,,,,MET,MA5800-X2,HUAWEI,MET,METRO,LAMPUNG,1,,105.3094,-5.11389
,,,,,GPON00-D1-MET-2PBL,,,,,,,,,MET,MA5800-X2,HUAWEI,MET,METRO,LAMPUNG,1,,105.3094,-5.11389
,,,,,GPON00-D1-MET-2RUM,,,,,,,,,MET,MA5800-X2,HUAWEI,MET,METRO,LAMPUNG,1,,105.3094,-5.11389
,,,,,GPON00-D1-MET-2SBY,,,,,,,,,MET,,NOKIA,MET,METRO,LAMPUNG,1,,105.3094,-5.11389
,,,,,GPON00-D1-MET-3,,,,,,,,,MET,C300v2,,MET,METRO,LAMPUNG,1,,105.3094,-5.11389
,,,,,GPON00-D1-MET-3KGJ,,,,,,,,,MET,OTHER,,MET,METRO,LAMPUNG,1,,105.3094,-5.11389
,,,,,GPON00-D1-MET-3SKP,,,,,,,,,MET,C320v2,,MET,METRO,LAMPUNG,1,,105.3094,-5.11389
,,,,,GPON00-D1-MET-3SPR,,,,,,,,,MET,C320v2,NOKIA,MET,METRO,LAMPUNG,1,,105.3094,-5.11389
,,,,,GPON00-D1-MGA-3,,,,,,,,,MGA,C300v2,NOKIA,MGA,MENGGALA,LAMPUNG,1,,105.2378,-4.4775
,,,,,GPON00-D1-MGA-3PTBB,,,,,,,,,MGA,C300v2,NOKIA,MGA,MENGGALA,LAMPUNG,1,,105.2378,-4.4775
,,,,,GPON00-D1-MGA-3RSUD,,,,,,,,,MGA,C320v2,NOKIA,MGA,MENGGALA,LAMPUNG,1,,105.2378,-4.4775
,,,,,GPON00-D1-MGD-2,,,,,,,,,MGD,MA5600T,HUAWEI,MGD,MATANG GLUMPANG DUA,ACEH,1,,96.78694,5.19667
,,,,,GPON00-D1-MGR-3,,,,,,,,,MGR,C300v2,NOKIA,MGR,MANGGAR,PANGKAL PINANG,1,,108.2667,-2.74083
,,,,,GPON00-D1-MGR-3BPY,,,,,,,,,MGR,OTHER,,MGR,MANGGAR,PANGKAL PINANG,1,,108.2667,-2.74083
,,,,,GPON00-D1-MGR-3DMR,,,,,,,,,MGR,C320v2,NOKIA,MGR,MANGGAR,PANGKAL PINANG,1,,108.2667,-2.74083
,,,,,GPON00-D1-MGR-3DNG,,,,,,,,,MGR,OTHER,NOKIA,MGR,MANGGAR,PANGKAL PINANG,1,,108.2667,-2.74083
,,,,,GPON00-D1-MGR-3GTG,,,,,,,,,MGR,C320v2,NOKIA,MGR,MANGGAR,PANGKAL PINANG,1,,108.2667,-2.74083
,,,,,GPON00-D1-MGR-3KLK,,,,,,,,,MGR,C320v2,NOKIA,MGR,MANGGAR,PANGKAL PINANG,1,,108.2667,-2.74083
,,,,,GPON00-D1-MGR-3LGN,,,,,,,,,MGR,OTHER,NOKIA,MGR,MANGGAR,PANGKAL PINANG,1,,108.2667,-2.74083
,,,,,GPON00-D1-MGR-3SRG,,,,,,,,,MGR,OTHER,NOKIA,MGR,MANGGAR,PANGKAL PINANG,1,,108.2667,-2.74083
,,,,,GPON00-D1-MIN-2,,,,,,,,,MIN,MA5600T,HUAWEI,MIN,MANINJAU,PADANG,1,,100.2492,-0.29953
,,,,,GPON00-D1-MIN-2MTR,,,,,,,,,MIN,MA5800-X2,HUAWEI,MIN,MANINJAU,PADANG,1,,100.2492,-0.29953
,,,,,GPON00-D1-MIS-2,,,,,,,,,MIS,MA5600T,HUAWEI,MIS,MINAS,RIDAR,1,,101.4508,0.71972
,,,,,GPON00-D1-MIS-3CLB,,,,,,,,,MIS,C320v2,NOKIA,MIS,MINAS,RIDAR,1,,101.4508,0.71972
,,,,,GPON00-D1-MIS-3CMI,,,,,,,,,MIS,C320v2,,MIS,MINAS,RIDAR,1,,101.4508,0.71972
,,,,,GPON00-D1-MIS-3CPT,,,,,,,,,MIS,C320v2,NOKIA,MIS,MINAS,RIDAR,1,,101.4508,0.71972
,,,,,GPON00-D1-MIS-3KDS,,,,,,,,,MIS,C320v2,,MIS,MINAS,RIDAR,1,,101.4508,0.71972
,,,,,GPON00-D1-MKL-2,,,,,,,,,MKL,,NOKIA,MKL,MATANGKULI,ACEH,1,,119.85526,-3.09442
,,,,,GPON00-D1-MKO-2LBPN,,,,,,,,,MKO,MA5608T,NOKIA,MKO,MUKO-MUKO,BENGKULU,1,,102.1804,-3.49867
,,,,,GPON00-D1-MKO-3,,,,,,,,,MKO,C300v2,,MKO,MUKO-MUKO,BENGKULU,1,,102.1804,-3.49867
,,,,,GPON00-D1-MKO-3ADT,,,,,,,,,MKO,,NOKIA,MKO,MUKO-MUKO,BENGKULU,1,,102.1804,-3.49867
,,,,,GPON00-D1-MKO-3RAB,,,,,,,,,MKO,C320v2,NOKIA,MKO,MUKO-MUKO,BENGKULU,1,,102.1804,-3.49867
,,,,,GPON00-D1-MLH-2PKN,,,,,,,,,MLH,MA5800-X2,HUAWEI,MLH,MUARA LABUH,PADANG,1,,101.0633,-1.49083
,,,,,GPON00-D1-MLH-3,,,,,,,,,MLH,C300v2,NOKIA,MLH,MUARA LABUH,PADANG,1,,101.0633,-1.49083
,,,,,GPON00-D1-MNA-2,,,,,,,,,MNA,MA5600T,HUAWEI,MNA,MANNA,BENGKULU,1,,102.9236,-3.38528
,,,,,GPON00-D1-MNA-2PNR,,,,,,,,,MNA,MA5608T,NOKIA,MNA,MANNA,BENGKULU,1,,102.9236,-3.38528
,,,,,GPON00-D1-MNA-3SAS,,,,,,,,,MNA,,,MNA,MANNA,BENGKULU,1,,102.9236,-3.38528
,,,,,GPON00-D1-MNA-3TJA,,,,,,,,,MNA,OTHER,NOKIA,MNA,MANNA,BENGKULU,1,,102.9236,-3.38528
,,,,,GPON00-D1-MND-3,,,,,,,,,MND,C300v2,NOKIA,MND,MANDALO,JAMBI,1,,103.53153,-1.62002
,,,,,GPON00-D1-MND-3RAC,,,,,,,,,MND,C300v2,NOKIA,MND,MANDALO,JAMBI,1,,103.53153,-1.62002
,,,,,GPON00-D1-MND-3SGJ,,,,,,,,,MND,C320v2,,MND,MANDALO,JAMBI,1,,103.53153,-1.62002
,,,,,GPON00-D1-MOR-3,,,,,,,,,MOR,C320v2,,MOR,MORO,RIKEP,1,,103.7061,0.76139
,,,,,GPON00-D1-MPA-2,,,,,,,,,MPA,MA5600T,HUAWEI,MPA,MARTAPURA,PALEMBANG,1,,104.3475165,-4.3156604
,,,,,GPON00-D1-MPA-3PBS,,,,,,,,,MPA,C620,NOKIA,MPA,MARTAPURA,PALEMBANG,1,,104.3475165,-4.3156604
,,,,,GPON00-D1-MPA-3SMP,,,,,,,,,MPA,C320v2,NOKIA,MPA,MARTAPURA,PALEMBANG,1,,104.3475165,-4.3156604
,,,,,GPON00-D1-MPA-3SRJ,,,,,,,,,MPA,C320v2,NOKIA,MPA,MARTAPURA,PALEMBANG,1,,104.3475165,-4.3156604
,,,,,GPON00-D1-MRO-3,,,,,,,,,MRO,C300v2,NOKIA,MRO,MUARA TEBO,JAMBI,1,,102.4417,-1.47891
,,,,,GPON00-D1-MRO-3BKL,,,,,,,,,MRO,C620,,MRO,MUARA TEBO,JAMBI,1,,102.4417,-1.47891
,,,,,GPON00-D1-MRO-3MKS,,,,,,,,,MRO,OTHER,,MRO,MUARA TEBO,JAMBI,1,,102.4417,-1.47891
,,,,,GPON00-D1-MRU-2TRG,,,,,,,,,MRU,MA5608T,NOKIA,MRU,MEUREUDU,ACEH,1,,96.24778,5.25111
,,,,,GPON00-D1-MRU-3,,,,,,,,,MRU,C300v2,NOKIA,MRU,MEUREUDU,ACEH,1,,96.24778,5.25111
,,,,,GPON00-D1-MSB-2,,,,,,,,,MSB,,,MSB,MUARA SIBERUT,PADANG,1,,99.2129301,-1.5956438
,,,,,GPON00-D1-MTK-3,,,,,,,,,MTK,C300v2,NOKIA,MTK,MUNTOK,PANGKAL PINANG,1,,105.1656,-2.05306
,,,,,GPON00-D1-MTK-3STR,,,,,,,,,MTK,OTHER,NOKIA,MTK,MUNTOK,PANGKAL PINANG,1,,105.1656,-2.05306
,,,,,GPON00-D1-MUA-3,,,,,,,,,MUA,C300v2,NOKIA,MUA,MDF MUARA AMAN,BENGKULU,1,,102.195,-3.10444
,,,,,GPON00-D1-MUA-3LBT,,,,,,,,,MUA,C620,,MUA,MDF MUARA AMAN,BENGKULU,1,,102.195,-3.10444
,,,,,GPON00-D1-MUA-3TES,,,,,,,,,MUA,,,MUA,MDF MUARA AMAN,BENGKULU,1,,102.195,-3.10444
,,,,,GPON00-D1-MUD-2,,,,,,,,,MUD,MA5600T,HUAWEI,MUD,MUARADUA,PALEMBANG,1,,104.07538,-4.53051
,,,,,GPON00-D1-MUD-3BDA,,,,,,,,,MUD,OTHER,NOKIA,MUD,MUARADUA,PALEMBANG,1,,104.07538,-4.53051
,,,,,GPON00-D1-MUD-3BPA,,,,,,,,,MUD,OTHER,NOKIA,MUD,MUARADUA,PALEMBANG,1,,104.07538,-4.53051
,,,,,GPON00-D1-MUD-3RUS,,,,,,,,,MUD,C620,NOKIA,MUD,MUARADUA,PALEMBANG,1,,104.07538,-4.53051
,,,,,GPON00-D1-MUD-3SSD,,,,,,,,,MUD,C320v2,NOKIA,MUD,MUARADUA,PALEMBANG,1,,104.07538,-4.53051
,,,,,GPON00-D1-MUR-2,,,,,,,,,MUR,MA5600T,HUAWEI,MUR,MDF MUARA RUPIT,PALEMBANG,1,,102.90966,-2.70771
,,,,,GPON00-D1-MUR-3NMN,,,,,,,,,MUR,C320v2,NOKIA,MUR,MDF MUARA RUPIT,PALEMBANG,1,,102.90966,-2.70771
,,,,,GPON00-D1-NGB-2,,,,,,,,,NGB,MA5600T,HUAWEI,NGB,NEGERI BARU,SUMUT,1,,100.0884,2.31326
,,,,,GPON00-D1-NGB-2AJM,,,,,,,,,NGB,MA5800-X2,HUAWEI,NGB,NEGERI BARU,SUMUT,1,,100.0884,2.31326
,,,,,GPON00-D1-NGS-2,,,,,,,,,NGS,MA5600T,HUAWEI,NGS,NONGSA,RIKEP,1,,104.1219,1.15613
,,,,,GPON00-D1-NRS-2,,,,,,,,,NRS,MA5800-X17,,NRS,NARAS,PADANG,1,,100.0997,-0.56194
,,,,,GPON00-D1-NTR-3,,,,,,,,,NTR,C300v2,NOKIA,NTR,NATAR,LAMPUNG,1,,105.1922,-5.31083
,,,,,GPON00-D1-OKI-3,,,,,,,,,OKI,C320v2,NOKIA,OKI,MDF FASTEL KAB OKI (VIRTUAL),PALEMBANG,1,,104.22086,-3.39262
,,,,,GPON00-D1-PAM-3,,,,,,,,,PAM,C300v2,NOKIA,PAM,PARIAMAN,PADANG,1,,100.1317,-0.62528
,,,,,GPON00-D1-PAP-3,,,,,,,,,PAP,C300v2,NOKIA,PAP,PASIR PUTIH,JAMBI,1,,103.635,-1.62151
,,,,,GPON00-D1-PBB-2,,,,,,,,,PBB,MA5800-X17,NOKIA,PBB,PAKANBARU,RIDAR,1,,101.38701,0.51535
,,,,,GPON00-D1-PBB-2CDN,,,,,,,,,PBB,,NOKIA,PBB,PAKANBARU,RIDAR,1,,101.38701,0.51535
,,,,,GPON00-D1-PBB-3SPB,,,,,,,,,PBB,OTHER,NOKIA,PBB,PAKANBARU,RIDAR,1,,101.38701,0.51535
,,,,,GPON00-D1-PBD-2BST,,,,,,,,,PBD,,ZTE,PBD,PANGKALAN BRANDAN,MEDAN,1,,98.28778,4.01833
,,,,,GPON00-D1-PBD-3,,,,,,,,,PBD,C300v2,ZTE,PBD,PANGKALAN BRANDAN,MEDAN,1,,98.28778,4.01833
,,,,,GPON00-D1-PBI-2,,,,,,,,,PBI,MA5600T,HUAWEI,PBI,MDF U/ DLC PANGKALAN BALAI,PALEMBANG,1,,104.21845,-2.83244
,,,,,GPON00-D1-PBM-2,,,,,,,,,PBM,MA5600T,HUAWEI,PBM,PRABUMULIH,PALEMBANG,1,,104.23702,-3.43222
,,,,,GPON00-D1-PBM-2KED,,,,,,,,,PBM,MA5608T,,PBM,PRABUMULIH,PALEMBANG,1,,104.23702,-3.43222
,,,,,GPON00-D1-PBM-3BRG,,,,,,,,,PBM,OTHER,,PBM,PRABUMULIH,PALEMBANG,1,,104.23702,-3.43222
,,,,,GPON00-D1-PBM-3PTT,,,,,,,,,PBM,,NOKIA,PBM,PRABUMULIH,PALEMBANG,1,,104.23702,-3.43222
,,,,,GPON00-D1-PBM-3TEL,,,,,,,,,PBM,C320v2,,PBM,PRABUMULIH,PALEMBANG,1,,104.23702,-3.43222
,,,,,GPON00-D1-PDB-3,,,,,,,,,PDB,C300v2,ZTE,PDB,PADANG BULAN,MEDAN,1,,98.63285,3.55566
,,,,,GPON00-D1-PDC-2,,,,,,,,,PDC,MA5600T,HUAWEI,PDC,PADANG CENTRUM,PADANG,1,,100.3533,-0.95278
,,,,,GPON00-D1-PDC-2MDJ,,,,,,,,,PDC,,,PDC,PADANG CENTRUM,PADANG,1,,100.3533,-0.95278
,,,,,GPON00-D1-PDJ-2,,,,,,,,,PDJ,MA5600T,HUAWEI,PDJ,PADANG JAPANG,PADANG,1,,100.5353,-0.10806
,,,,,GPON00-D1-PDJ-2GNO,,,,,,,,,PDJ,,,PDJ,PADANG JAPANG,PADANG,1,,100.5353,-0.10806
,,,,,GPON00-D1-PDN-2,,,,,,,,,PDN,MA5600T,HUAWEI,PDN,PERDAGANGAN,SUMUT,1,,99.3316,3.1634
,,,,,GPON00-D1-PDP-2,,,,,,,,,PDP,MA5600T,HUAWEI,PDP,PENDOPO LINTANG,PALEMBANG,1,,102.96625,-3.78566
,,,,,GPON00-D1-PDP-2MUP,,,,,,,,,PDP,MA5608T,NOKIA,PDP,PENDOPO LINTANG,PALEMBANG,1,,102.96625,-3.78566
,,,,,GPON00-D1-PDS-2,,,,,,,,,PDS,MA5800-X17,NOKIA,PDS,PADANG SIBUSUK,PADANG,1,,100.8264,-0.69306
,,,,,GPON00-D1-PDT-2JYA,,,,,,,,,PDT,,NOKIA,PDT,PENDOPO TALANG UBI,PALEMBANG,1,,103.83005,-3.27279
,,,,,GPON00-D1-PDT-3,,,,,,,,,PDT,C300v2,NOKIA,PDT,PENDOPO TALANG UBI,PALEMBANG,1,,103.83005,-3.27279
,,,,,GPON00-D1-PDW-3,,,,,,,,,PDW,C300v2,NOKIA,PDW,MDF PAGAR DEWA,BENGKULU,1,,102.31925,-3.84364
,,,,,GPON00-D1-PDW-3MRG,,,,,,,,,PDW,C320v2,,PDW,MDF PAGAR DEWA,BENGKULU,1,,102.31925,-3.84364
,,,,,GPON00-D1-PER-2FF,,,,,,,,,PER,MA5608T,ZTE,PER,PERBAUNGAN,MEDAN,1,,98.95123,3.5723
,,,,,GPON00-D1-PER-2FM,,,,,,,,,PER,MA5608T,ZTE,PER,PERBAUNGAN,MEDAN,1,,98.95123,3.5723
,,,,,GPON00-D1-PER-3,,,,,,,,,PER,C300v2,ZTE,PER,PERBAUNGAN,MEDAN,1,,98.95123,3.5723
,,,,,GPON00-D1-PGA-3,,,,,,,,,PGA,C300v2,NOKIA,PGA,PAGAR ALAM,PALEMBANG,1,,103.24973,-4.01497
,,,,,GPON00-D1-PGC-3,,,,,,,,,PGC,,,PGC,PALEMBANG CENTRUM,PALEMBANG,1,,104.74832,-2.97792
,,,,,GPON00-D1-PGL-2,,,,,,,,,PGL,MA5600T,HUAWEI,PGL,PANGKALAN SUSU,MEDAN,1,,98.21445,4.12083
,,,,,GPON00-D1-PGP-3,,,,,,,,,PGP,OTHER,,PGP,PANGKAL PINANG,PANGKAL PINANG,1,,106.1131,-2.1175
,,,,,GPON00-D1-PGP-3BTR,,,,,,,,,PGP,OTHER,NOKIA,PGP,PANGKAL PINANG,PANGKAL PINANG,1,,106.1131,-2.1175
,,,,,GPON00-D1-PGP-3KLP,,,,,,,,,PGP,C320v2,NOKIA,PGP,PANGKAL PINANG,PANGKAL PINANG,1,,106.1131,-2.1175
,,,,,GPON00-D1-PGP-3LMP,,,,,,,,,PGP,OTHER,NOKIA,PGP,PANGKAL PINANG,PANGKAL PINANG,1,,106.1131,-2.1175
,,,,,GPON00-D1-PGP-3NMG,,,,,,,,,PGP,C320v2,NOKIA,PGP,PANGKAL PINANG,PANGKAL PINANG,1,,106.1131,-2.1175
,,,,,GPON00-D1-PGP-3PYG,,,,,,,,,PGP,C620,NOKIA,PGP,PANGKAL PINANG,PANGKAL PINANG,1,,106.1131,-2.1175
,,,,,GPON00-D1-PGP-3SKT,,,,,,,,,PGP,C320v2,NOKIA,PGP,PANGKAL PINANG,PANGKAL PINANG,1,,106.1131,-2.1175
,,,,,GPON00-D1-PGP-3TGN,,,,,,,,,PGP,OTHER,,PGP,PANGKAL PINANG,PANGKAL PINANG,1,,106.1131,-2.1175
,,,,,GPON00-D1-PJN-3,,,,,,,,,PJN,C300v2,NOKIA,PJN,PANJANG,LAMPUNG,1,,105.3236,-5.47528
,,,,,GPON00-D1-PKB-2,,,,,,,,,PKB,MA5600T,HUAWEI,PKB,PANKALAN BULIAN,JAMBI,1,,103.7912,-1.20385
,,,,,GPON00-D1-PKB-2MSK,,,,,,,,,PKB,,,PKB,PANKALAN BULIAN,JAMBI,1,,103.7912,-1.20385
,,,,,GPON00-D1-PKR-2,,,,,,,,,PKR,MA5600T,HUAWEI,PKR,PANGKALAN KERINCI,RIDAR,1,,101.85855,0.42196
,,,,,GPON00-D1-PKR-3LBD,,,,,,,,,PKR,C320v2,NOKIA,PKR,PANGKALAN KERINCI,RIDAR,1,,101.85855,0.42196
,,,,,GPON00-D1-PKR-3SGK,,,,,,,,,PKR,OTHER,NOKIA,PKR,PANGKALAN KERINCI,RIDAR,1,,101.85855,0.42196
,,,,,GPON00-D1-PLJ-2JBR,,,,,,,,,PLJ,MA5608T,NOKIA,PLJ,PLAJU,PALEMBANG,1,,104.81756,-3.00849
,,,,,GPON00-D1-PLJ-2MARIANA,,,,,,,,,PLJ,MA5608T,NOKIA,PLJ,PLAJU,PALEMBANG,1,,104.81756,-3.00849
,,,,,GPON00-D1-PLJ-3,,,,,,,,,PLJ,C300v2,NOKIA,PLJ,PLAJU,PALEMBANG,1,,104.81756,-3.00849
,,,,,GPON00-D1-PMB-3,,,,,,,,,PMB,C300v2,NOKIA,PMB,PEMATANG REBA,RIDAR,1,,102.44158,-0.38271
,,,,,GPON00-D1-PMS-2,,,,,,,,,PMS,,NOKIA,PMS,PEMATANG SUMUT CENTRUM,SUMUT,1,,99.06259,2.95809
,,,,,GPON00-D1-PMS-2FAZ,,,,,,,,,PMS,MA5608T,NOKIA,PMS,PEMATANG SUMUT CENTRUM,SUMUT,1,,99.06259,2.95809
,,,,,GPON00-D1-PMS-2FBE,,,,,,,,,PMS,MA5608T,NOKIA,PMS,PEMATANG SUMUT CENTRUM,SUMUT,1,,99.06259,2.95809
,,,,,GPON00-D1-PMS-2TBL,,,,,,,,,PMS,,NOKIA,PMS,PEMATANG SUMUT CENTRUM,SUMUT,1,,99.06259,2.95809
,,,,,GPON00-D1-PMS-3,,,,,,,,,PMS,C300v2,NOKIA,PMS,PEMATANG SUMUT CENTRUM,SUMUT,1,,99.06259,2.95809
,,,,,GPON00-D1-PMY-2,,,,,,,,,PMY,MA5600T,HUAWEI,PMY,PEMATANG RAYA,SUMUT,1,,98.86313,2.96701
,,,,,GPON00-D1-PMY-2FAD,,,,,,,,,PMY,MA5608T,NOKIA,PMY,PEMATANG RAYA,SUMUT,1,,98.86313,2.96701
,,,,,GPON00-D1-PNA-2,,,,,,,,,PNA,MA5800-X17,NOKIA,PNA,PANGKALAN,PADANG,1,,100.7336,-0.0825
,,,,,GPON00-D1-PNA-2KPS,,,,,,,,,PNA,MA5800-X2,HUAWEI,PNA,PANGKALAN,PADANG,1,,100.7336,-0.0825
,,,,,GPON00-D1-PND-2,,,,,,,,,PND,MA5600T,HUAWEI,PND,PANDAN,SUMUT,1,,98.82667,1.67979
,,,,,GPON00-D1-PNN-2,,,,,,,,,PNN,MA5600T,HUAWEI,PNN,PAINAN,PADANG,1,,100.5794,-1.34889
,,,,,GPON00-D1-PPJ-2BTB,,,,,,,,,PPJ,MA5800-X2,HUAWEI,PPJ,PADANG PANJANG,PADANG,1,,100.3989,-0.46306
,,,,,GPON00-D1-PPJ-3,,,,,,,,,PPJ,C300v2,NOKIA,PPJ,PADANG PANJANG,PADANG,1,,100.3989,-0.46306
,,,,,GPON00-D1-PPN-3,,,,,,,,,PPN,C300v2,NOKIA,PPN,PASIR PANGARAIAN,RIDAR,1,,100.30108,0.8617
,,,,,GPON00-D1-PPN-3BGJ,,,,,,,,,PPN,C620,NOKIA,PPN,PASIR PANGARAIAN,RIDAR,1,,100.30108,0.8617
,,,,,GPON00-D1-PPN-3DLU,,,,,,,,,PPN,C620,NOKIA,PPN,PASIR PANGARAIAN,RIDAR,1,,100.30108,0.8617
,,,,,GPON00-D1-PPN-3KTT,,,,,,,,,PPN,C620,NOKIA,PPN,PASIR PANGARAIAN,RIDAR,1,,100.30108,0.8617
,,,,,GPON00-D1-PPN-3RTK,,,,,,,,,PPN,C620,NOKIA,PPN,PASIR PANGARAIAN,RIDAR,1,,100.30108,0.8617
,,,,,GPON00-D1-PPT-2,,,,,,,,,PPT,MA5600T,HUAWEI,PPT,PARAPAT,SUMUT,1,,98.93813,2.66229
,,,,,GPON00-D1-PPT-2KDT,,,,,,,,,PPT,MA5800-X2,HUAWEI,PPT,PARAPAT,SUMUT,1,,98.93813,2.66229
,,,,,GPON00-D1-PRA-2,,,,,,,,,PRA,MA5600T,HUAWEI,PRA,PULAU RAKYAT,SUMUT,1,,99.61931,2.71056
,,,,,GPON00-D1-PRL-2,,,,,,,,,PRL,MA5600T,HUAWEI,PRL,PEUREULAK,ACEH,1,,97.89445,4.80889
,,,,,GPON00-D1-PRL-2RNT,,,,,,,,,PRL,MA5800-X2,HUAWEI,PRL,PEUREULAK,ACEH,1,,97.89445,4.80889
,,,,,GPON00-D1-PRL-2SRY,,,,,,,,,PRL,MA5608T,NOKIA,PRL,PEUREULAK,ACEH,1,,97.89445,4.80889
,,,,,GPON00-D1-PRR-2NGL,,,,,,,,,PRR,,,PRR,PANGURURAN,SUMUT,1,,98.71,2.61
,,,,,GPON00-D1-PRR-3,,,,,,,,,PRR,C300v2,NOKIA,PRR,PANGURURAN,SUMUT,1,,98.71,2.61
,,,,,GPON00-D1-PRS-2PTL,,,,,,,,,PRS,,NOKIA,PRS,PASAR USANG,PADANG,1,,100.3125,-0.73667
,,,,,GPON00-D1-PRS-3,,,,,,,,,PRS,C300v2,NOKIA,PRS,PASAR USANG,PADANG,1,,100.3125,-0.73667
,,,,,GPON00-D1-PRT-2,,,,,,,,,PRT,MA5600T,HUAWEI,PRT,PERCUT,MEDAN,1,,98.69645,3.5851
,,,,,GPON00-D1-PRW-2,,,,,,,,,PRW,,NOKIA,PRW,PRINGSEWU,LAMPUNG,1,,104.9714,-5.35556
,,,,,GPON00-D1-PRW-2AMB,,,,,,,,,PRW,MA5800-X2,HUAWEI,PRW,PRINGSEWU,LAMPUNG,1,,104.9714,-5.35556
,,,,,GPON00-D1-PRW-2AMBR,,,,,,,,,PRW,,NOKIA,PRW,PRINGSEWU,LAMPUNG,1,,104.9714,-5.35556
,,,,,GPON00-D1-PRW-2PDS,,,,,,,,,PRW,MA5800-X2,HUAWEI,PRW,PRINGSEWU,LAMPUNG,1,,104.9714,-5.35556
,,,,,GPON00-D1-PRW-2PGL,,,,,,,,,PRW,MA5800-X2,HUAWEI,PRW,PRINGSEWU,LAMPUNG,1,,104.9714,-5.35556
,,,,,GPON00-D1-PRW-3,,,,,,,,,PRW,C300v2,NOKIA,PRW,PRINGSEWU,LAMPUNG,1,,104.9714,-5.35556
,,,,,GPON00-D1-PSA-2FAG,,,,,,,,,PSA,MA5608T,NOKIA,PSA,PORSEA,SUMUT,1,,99.15639,2.44549
,,,,,GPON00-D1-PSA-2PSR,,,,,,,,,PSA,,NOKIA,PSA,PORSEA,SUMUT,1,,99.15639,2.44549
,,,,,GPON00-D1-PSA-3,,,,,,,,,PSA,C300v2,NOKIA,PSA,PORSEA,SUMUT,1,,99.15639,2.44549
,,,,,GPON00-D1-PSB-2KBR,,,,,,,,,PSB,MA5800-X2,HUAWEI,PSB,PASAR BARU,PADANG,1,,100.5117,-0.30333
,,,,,GPON00-D1-PSB-3,,,,,,,,,PSB,C300v2,NOKIA,PSB,PASAR BARU,PADANG,1,,100.5117,-0.30333
,,,,,GPON00-D1-PSP-2,,,,,,,,,PSP,MA5600T,HUAWEI,PSP,PADANG SIDEMPUAN,SUMUT,1,,99.30495,1.44381
,,,,,GPON00-D1-PSP-2PPG,,,,,,,,,PSP,,ZTE,PSP,PADANG SIDEMPUAN,SUMUT,1,,99.30495,1.44381
,,,,,GPON00-D1-PTI-3,,,,,,,,,PTI,C600,NOKIA,PTI,PANTI,PADANG,1,,100.0586,-0.36611
,,,,,GPON00-D1-PTL-2,,,,,,,,,PTL,MA5600T,HUAWEI,PTL,PANTON LABU,ACEH,1,,97.46,5.11361
,,,,,GPON00-D1-PUB-3,,,,,,,,,PUB,OTHER,,PUB,PULAU BRAYAN,MEDAN,1,,98.68111,3.62763
,,,,,GPON00-D1-PUK-2,,,,,,,,,PUK,MA5800-X17,,PUK,PAUH KAMBAR,PADANG,1,,100.2136,-0.21639
,,,,,GPON00-D1-PWG-2,,,,,,,,,PWG,MA5600T,HUAWEI,PWG,PERAWANG,RIDAR,1,,101.6119,0.66694
,,,,,GPON00-D1-PYB-2,,,,,,,,,PYB,MA5600T,HUAWEI,PYB,PENYABUNGAN,SUMUT,1,,99.56444,0.86694
,,,,,GPON00-D1-PYB-2FAJ,,,,,,,,,PYB,MA5608T,,PYB,PENYABUNGAN,SUMUT,1,,99.56444,0.86694
,,,,,GPON00-D1-PYB-2LBU,,,,,,,,,PYB,,,PYB,PENYABUNGAN,SUMUT,1,,99.56444,0.86694
,,,,,GPON00-D1-PYB-2NTL,,,,,,,,,PYB,MA5800-X2,HUAWEI,PYB,PENYABUNGAN,SUMUT,1,,99.56444,0.86694
,,,,,GPON00-D1-PYK-2BHP,,,,,,,,,PYK,MA5800-X2,HUAWEI,PYK,PAYAKUMBUH,PADANG,1,,100.6244,-0.22861
,,,,,GPON00-D1-PYK-2PNB,,,,,,,,,PYK,,NOKIA,PYK,PAYAKUMBUH,PADANG,1,,100.6244,-0.22861
,,,,,GPON00-D1-PYK-3,,,,,,,,,PYK,C300v2,NOKIA,PYK,PAYAKUMBUH,PADANG,1,,100.6244,-0.22861
,,,,,GPON00-D1-RAI-3,,,,,,,,,RAI,C300v2,,RAI,RANAI,RIKEP,1,,108.3875,3.94111
,,,,,GPON00-D1-RAI-3DTS,,,,,,,,,RAI,C620,,RAI,RANAI,RIKEP,1,,108.3875,3.94111
,,,,,GPON00-D1-RAP-2MRB,,,,,,,,,RAP,MA5800-X2,HUAWEI,RAP,RANTAU PRAPAT,SUMUT,1,,99.83188,2.09868
,,,,,GPON00-D1-RAP-3,,,,,,,,,RAP,C300v2,,RAP,RANTAU PRAPAT,SUMUT,1,,99.83188,2.09868
,,,,,GPON00-D1-RBB-3,,,,,,,,,RBB,C300v2,NOKIA,RBB,RIMBO BUJANG,JAMBI,1,,102.1065,-1.31166
,,,,,GPON00-D1-RBI-2,,,,,,,,,RBI,MA5600T,HUAWEI,RBI,RUMBAI,RIDAR,1,,101.42698,0.56941
,,,,,GPON00-D1-RBI-3CRB,,,,,,,,,RBI,C320v2,,RBI,RUMBAI,RIDAR,1,,101.42698,0.56941
,,,,,GPON00-D1-RBM-3,,,,,,,,,RBM,C300v2,ZTE,RBM,PMS RAMBUNG MERAH,SUMUT,1,,99.07693,2.98912
,,,,,GPON00-D1-RGT-2,,,,,,,,,RGT,MA5600T,HUAWEI,RGT,RENGAT,RIDAR,1,,102.54732,-0.37414
,,,,,GPON00-D1-RGT-2PKS,,,,,,,,,RGT,,,RGT,RENGAT,RIDAR,1,,102.54732,-0.37414
,,,,,GPON00-D1-RGT-3BLS,,,,,,,,,RGT,C300v2,NOKIA,RGT,RENGAT,RIDAR,1,,102.54732,-0.37414
,,,,,GPON00-D1-RGT-3KIL,,,,,,,,,RGT,C620,NOKIA,RGT,RENGAT,RIDAR,1,,102.54732,-0.37414
,,,,,GPON00-D1-RGT-3KLC,,,,,,,,,RGT,C620,NOKIA,RGT,RENGAT,RIDAR,1,,102.54732,-0.37414
,,,,,GPON00-D1-RGT-3KTG,,,,,,,,,RGT,OTHER,,RGT,RENGAT,RIDAR,1,,102.54732,-0.37414
,,,,,GPON00-D1-RGT-3SBD,,,,,,,,,RGT,C620,NOKIA,RGT,RENGAT,RIDAR,1,,102.54732,-0.37414
,,,,,GPON00-D1-RGT-3SLS,,,,,,,,,RGT,C320v2,NOKIA,RGT,RENGAT,RIDAR,1,,102.54732,-0.37414
,,,,,GPON00-D1-SAB-2IBH,,,,,,,,,SAB,MA5608T,,SAB,SABANG,ACEH,1,,95.31639,5.89333
,,,,,GPON00-D1-SAB-2IBOIH,,,,,,,,,SAB,,NOKIA,SAB,SABANG,ACEH,1,,95.31639,5.89333
,,,,,GPON00-D1-SAB-3,,,,,,,,,SAB,C300v2,NOKIA,SAB,SABANG,ACEH,1,,95.31639,5.89333
,,,,,GPON00-D1-SAK-3,,,,,,,,,SAK,C300v2,NOKIA,SAK,SIAK,RIDAR,1,,102.05225,0.79449
,,,,,GPON00-D1-SAK-3BGR,,,,,,,,,SAK,C620,NOKIA,SAK,SIAK,RIDAR,1,,102.05225,0.79449
,,,,,GPON00-D1-SAK-3DYN,,,,,,,,,SAK,C320v2,NOKIA,SAK,SIAK,RIDAR,1,,102.05225,0.79449
,,,,,GPON00-D1-SBG-2,,,,,,,,,SBG,MA5600T,HUAWEI,SBG,SURABAYA SGW,SUMUT,1,,98.77653,1.74097
,,,,,GPON00-D1-SBG-2FAU,,,,,,,,,SBG,MA5608T,ZTE,SBG,SURABAYA SGW,SUMUT,1,,98.77653,1.74097
,,,,,GPON00-D1-SBG-2KLG,,,,,,,,,SBG,,NOKIA,SBG,SURABAYA SGW,SUMUT,1,,98.77653,1.74097
,,,,,GPON00-D1-SBN-2,,,,,,,,,SBN,MA5600T,HUAWEI,SBN,SERBELAWAN,SUMUT,1,,99.11917,3.14444
,,,,,GPON00-D1-SBO-2,,,,,,,,,SBO,MA5800-X17,,SBO,SEI BROMBANG,SUMUT,1,,100.1233,2.60889
,,,,,GPON00-D1-SBO-2LBB,,,,,,,,,SBO,,NOKIA,SBO,SEI BROMBANG,SUMUT,1,,100.1233,2.60889
,,,,,GPON00-D1-SBU-3,,,,,,,,,SBU,OTHER,,SBU,SEBERANG ULU,PALEMBANG,1,,104.77025,-3.00335
,,,,,GPON00-D1-SCC-2MLK,,,,,,,,,SCC,,NOKIA,SCC,SICINCIN,PADANG,1,,100.2814,-0.56306
,,,,,GPON00-D1-SCC-3,,,,,,,,,SCC,C300v2,NOKIA,SCC,SICINCIN,PADANG,1,,100.2814,-0.56306
,,,,,GPON00-D1-SDK-2FAP,,,,,,,,,SDK,MA5608T,ZTE,SDK,SIDIKALANG,SUMUT,1,,98.31167,2.75097
,,,,,GPON00-D1-SDK-2PRG,,,,,,,,,SDK,MA5800-X2,HUAWEI,SDK,SIDIKALANG,SUMUT,1,,98.31167,2.75097
,,,,,GPON00-D1-SDK-2TGL,,,,,,,,,SDK,,ZTE,SDK,SIDIKALANG,SUMUT,1,,98.31167,2.75097
,,,,,GPON00-D1-SDK-3,,,,,,,,,SDK,C300v2,ZTE,SDK,SIDIKALANG,SUMUT,1,,98.31167,2.75097
,,,,,GPON00-D1-SEA-2,,,,,,,,,SEA,MA5600T,HUAWEI,SEA,SEIAPIT,RIDAR,1,,102.1562,1.12194
,,,,,GPON00-D1-SGB-3,,,,,,,,,SGB,C300v2,NOKIA,SGB,SUNGAI BUAH,PALEMBANG,1,,104.79234,-2.96547
,,,,,GPON00-D1-SGD-2,,,,,,,,,SGD,MA5600T,HUAWEI,SGD,SUNGAI DAREH,PADANG,1,,101.5042,-0.96639
,,,,,GPON00-D1-SGD-2KJO,,,,,,,,,SGD,MA5800-X17,NOKIA,SGD,SUNGAI DAREH,PADANG,1,,101.5042,-0.96639
,,,,,GPON00-D1-SGD-2TJG,,,,,,,,,SGD,MA5800-X2,HUAWEI,SGD,SUNGAI DAREH,PADANG,1,,101.5042,-0.96639
,,,,,GPON00-D1-SGD-2TMP,,,,,,,,,SGD,,NOKIA,SGD,SUNGAI DAREH,PADANG,1,,101.5042,-0.96639
,,,,,GPON00-D1-SGI-2KML,,,,,,,,,SGI,MA5608T,NOKIA,SGI,SIGLI,ACEH,1,,95.95639,5.38111
,,,,,GPON00-D1-SGI-2LWG,,,,,,,,,SGI,,NOKIA,SGI,SIGLI,ACEH,1,,95.95639,5.38111
,,,,,GPON00-D1-SGI-2PTJ,,,,,,,,,SGI,MA5608T,NOKIA,SGI,SIGLI,ACEH,1,,95.95639,5.38111
,,,,,GPON00-D1-SGI-2SPG,,,,,,,,,SGI,MA5800-X2,HUAWEI,SGI,SIGLI,ACEH,1,,95.95639,5.38111
,,,,,GPON00-D1-SGI-3,,,,,,,,,SGI,C300v2,NOKIA,SGI,SIGLI,ACEH,1,,95.95639,5.38111
,,,,,GPON00-D1-SGP-2,,,,,,,,,SGP,MA5600T,HUAWEI,SGP,SUNGAI PAKNING,RIDAR,1,,102.15696,1.36072
,,,,,GPON00-D1-SGT-3GPS,,,,,,,,,SGT,C320v2,,SGT,SUNGAI GUNTUNG,RIKEP,1,,103.61316,0.29612
,,,,,GPON00-D1-SGT-3PLU,,,,,,,,,SGT,C320v2,NOKIA,SGT,SUNGAI GUNTUNG,RIKEP,1,,103.61316,0.29612
,,,,,GPON00-D1-SGT-3PSG,,,,,,,,,SGT,C320v2,NOKIA,SGT,SUNGAI GUNTUNG,RIKEP,1,,103.61316,0.29612
,,,,,GPON00-D1-SIB-2,,,,,,,,,SIB,MA5600T,HUAWEI,SIB,SIBORONG-BORONG,SUMUT,1,,98.97306,2.21389
,,,,,GPON00-D1-SIB-2MRA,,,,,,,,,SIB,,NOKIA,SIB,SIBORONG-BORONG,SUMUT,1,,98.97306,2.21389
,,,,,GPON00-D1-SIE-3,,,,,,,,,SIE,C300v2,NOKIA,SIE,SITEBA,PADANG,1,,100.36845,0.88343
,,,,,GPON00-D1-SIG-2,,,,,,,,,SIG,MA5800-X17,NOKIA,SIG,SIMALANGGANG,PADANG,1,,106.66808,-6.29737
,,,,,GPON00-D1-SIH-2,,,,,,,,,SIH,MA5600T,HUAWEI,SIH,SIBUHUAN,SUMUT,1,,99.74111,1.0475
,,,,,GPON00-D1-SIH-2SSA,,,,,,,,,SIH,,NOKIA,SIH,SIBUHUAN,SUMUT,1,,99.74111,1.0475
,,,,,GPON00-D1-SIP-2GRG,,,,,,,,,SIP,,ZTE,SIP,SIPIROK,SUMUT,1,,99.28167,1.59556
,,,,,GPON00-D1-SIR-2,,,,,,,,,SIR,MA5800-X2,HUAWEI,SIR,SUNGAI TARAP,PADANG,1,,100.5664,-0.41333
,,,,,GPON00-D1-SIU-2,,,,,,,,,SIU,MA5800-X17,NOKIA,SIU,SALIMPAUNG,PADANG,1,,100.5437,-0.3482
,,,,,GPON00-D1-SJJ-2,,,,,,,,,SJJ,MA5600T,HUAWEI,SJJ,SIJUNJUNG,PADANG,1,,100.9378,-0.49472
,,,,,GPON00-D1-SJJ-2LBT,,,,,,,,,SJJ,MA5800-X2,HUAWEI,SJJ,SIJUNJUNG,PADANG,1,,100.9378,-0.49472
,,,,,GPON00-D1-SJJ-2MOB,,,,,,,,,SJJ,,,SJJ,SIJUNJUNG,PADANG,1,,100.9378,-0.49472
,,,,,GPON00-D1-SJJ-2SMP,,,,,,,,,SJJ,,,SJJ,SIJUNJUNG,PADANG,1,,100.9378,-0.49472
,,,,,GPON00-D1-SJJ-2TJA,,,,,,,,,SJJ,MA5800-X2,HUAWEI,SJJ,SIJUNJUNG,PADANG,1,,100.9378,-0.49472
,,,,,GPON00-D1-SKD-3,,,,,,,,,SKD,C300v2,NOKIA,SKD,SUKADANA,LAMPUNG,1,,105.5483,-5.06722
,,,,,GPON00-D1-SKI-3,,,,,,,,,SKI,OTHER,,SKI,SUKARAMAI,MEDAN,1,,98.70145,3.56833
