{"nodes":[{"details":[],"id":"BDS","label":"BATAM BUKIT DANGAS STPR","layer":"tera - cgw","platform":"cisco","reg":null,"size":5,"types":"TERA","witel":"RIKEP","x":103.939,"y":1.12389},{"details":[],"id":"BTC","label":"BATAM CENTRE","layer":"tera - cgw","platform":"cisco","reg":null,"size":5,"types":"TERA","witel":"RIKEP","x":104.05114,"y":1.11527},{"details":[],"id":"MDO","label":"MANADO B","layer":"tera - cgw","platform":"cisco","reg":null,"size":5,"types":"TERA","witel":"MENADO","x":124.8433,"y":1.48702},{"details":[],"id":"PNK","label":"PANIKI","layer":"tera - cgw","platform":"cisco","reg":null,"size":5,"types":"TERA","witel":"MENADO","x":124.8431251,"y":1.4873467},{"details":[],"id":"TLK","label":"TALANG KELAPA","layer":"tera - cgw","platform":"","reg":null,"size":5,"types":"","witel":"PALEMBANG","x":104.72288,"y":-2.93876}],"edges":[{"avg_utilization":192033641660.5,"details":[],"id":1,"layer_list":"tera - cgw","link_count":2,"ruas_list":"CGW2-ID-TLK.BDS_to_P-D1-BDS, CGW-ID-TLK.BDS_to_P-D1-BDS","size":2,"source":"BDS","source_label":"BATAM BUKIT DANGAS STPR","source_lat":1.12389,"source_lon":103.939,"target":"TLK","target_label":"TALANG KELAPA","target_lat":-2.93876,"target_lon":104.72288,"total_capacity":10100000000000.0},{"avg_utilization":462931396438.0,"details":[],"id":2,"layer_list":"tera - cgw","link_count":1,"ruas_list":"CGW2-ID-TLK.BTC_to_P-D1-BTC","size":1,"source":"BTC","source_label":"BATAM CENTRE","source_lat":1.11527,"source_lon":104.05114,"target":"TLK","target_label":"TALANG KELAPA","target_lat":-2.93876,"target_lon":104.72288,"total_capacity":10100000000000.0},{"avg_utilization":47502773777.0,"details":[],"id":3,"layer_list":"tera - cgw","link_count":1,"ruas_list":"CGW-ID-TLK.MDO_to_P-D7-MDO","size":1,"source":"MDO","source_label":"MANADO B","source_lat":1.48702,"source_lon":124.8433,"target":"TLK","target_label":"TALANG KELAPA","target_lat":-2.93876,"target_lon":104.72288,"total_capacity":1600000000000.0},{"avg_utilization":41459055517.0,"details":[],"id":4,"layer_list":"tera - cgw","link_count":1,"ruas_list":"CGW-ID-TLK.PNK_to_P-D7-PNK","size":1,"source":"PNK","source_label":"PANIKI","source_lat":1.4873467,"source_lon":124.8431251,"target":"TLK","target_label":"TALANG KELAPA","target_lat":-2.93876,"target_lon":104.72288,"total_capacity":1600000000000.0}]}